t,dt,distance_ft,distance_to_runway_ft,cross_track_ft,terrain_type,terrain_elev_ft,h_agl_ft,h_sl_ft,vc_kts,vs_fpm,roll_deg,pitch_deg,yaw_deg,wow,runway_heading_deg,cmd_throttle,cmd_elevator,cmd_aileron,cmd_rudder,cmd_flaps,phase,mode,note,suggestion,alerts,throttle,elevator,aileron,rudder,flaps,target_td_past_threshold_ft,distance_to_td_ft
0.0,0.016666666666666666,0.0,2200.0,0.0,steps,-12.499999998273701,119.9999999982737,107.5,72.00000000000111,-249.99881181057248,-0.13918031503604858,1.197828718269718,360.0,False,0.0,0.0,0.0,0.0,0.0,0.0,approach,normal,approach guidance tracking,检测到侧偏后立即修正，并沿目标接地点下滑,,0.22802147256386807,0.025688812194363177,0.006680655121730332,0.0005288851971369846,0.12,120.0,2080.0
0.016666666666666666,0.016666666666666666,2.024929236958923,2197.975070763041,0.0,steps,-12.4999999982737,119.93057143515571,107.43057143688202,72.00007049395794,-249.99732970512963,-0.13918031578066464,1.1978343066969543,359.9999999999844,False,0.0,0.22802147256386807,0.025688812194363177,0.006680655121730332,0.0005288851971369846,0.12,approach,normal,approach guidance tracking,检测到侧偏后立即修正，并沿目标接地点下滑,,0.22801402180973482,0.025715172128986108,0.006680655157741041,0.0005288852002001521,0.12,120.0,2077.975070763041
0.03333333333333333,0.016666666666666666,4.049860452361445,2195.9501395476386,-5.504506596503551e-13,steps,-12.499999998273704,119.86111515215264,107.36111515387893,72.00000081789796,-249.8727348252984,-0.1391802801247468,1.1978398978606708,359.9999999999622,False,0.0,0.22801402180973482,0.025715172128986108,0.006680655157741041,0.0005288852002001521,0.12,approach,normal,approach guidance tracking,检测到侧偏后立即修正，并沿目标接地点下滑,,0.2280082580667191,0.02573759637138346,0.006680653446643688,0.0005288850650416014,0.12,120.0,2075.9501395476386
0.05,0.016666666666666666,6.074789704061573,2193.9252102959385,-1.886397132957721e-12,steps,-12.499999998273706,119.79173760688529,107.29173760861158,71.99982836557018,-249.67733532745743,-0.13468406424322182,1.197859003175952,4.8477449744947715e-05,False,0.0,0.2280082580667191,0.02573759637138346,0.006680653446643688,0.0005288850650416014,0.12,approach,normal,approach guidance tracking,检测到侧偏后立即修正，并沿目标接地点下滑,,0.22800371348464887,0.025757828994293915,0.00646399739335211,0.0005110722823799551,0.12,120.0,2073.9252102959385
0.06666666666666667,0.016666666666666666,8.099714091591162,2191.900285908409,1.713268638377898e-06,steps,-12.500000001544361,119.7224181272632,107.22241812571883,71.99954925655146,-249.41269924049917,-0.12322151617435254,1.1979055263431242,0.00016185522786405017,False,0.0,0.22800371348464887,0.025757828994293915,0.00646399739335211,0.0005110722823799551,0.12,approach,normal,approach guidance tracking,检测到侧偏后立即修正，并沿目标接地点下滑,,0.2280004383769395,0.0257759059022045,0.005911827694341967,0.0004658122197759405,0.12,120.0,2071.900285908409
0.08333333333333333,0.016666666666666666,10.12463059507379,2189.875369404926,7.433468710035652e-06,steps,-12.500000004815014,119.65318159122958,107.15318158641458,71.99915974366247,-249.08236637978456,-0.10521050304369305,1.1979731993032574,0.00032210807006128673,False,0.0,0.2280004383769395,0.0257759059022045,0.005911827694341967,0.0004658122197759405,0.12,approach,normal,approach guidance tracking,检测到侧偏后立即修正，并沿目标接地点下滑,,0.22799847326020078,0.025791958775672898,0.0050445024379968,0.00039496085704640425,0.12,120.0,2069.875369404926
0.09999999999999999,0.016666666666666666,12.149536093877705,2187.8504639061225,1.8817176337642943e-05,steps,-12.500000001544324,119.58404552718457,107.08404552564025,71.99865597574046,-248.68970414246763,-0.081045096759907,1.1980576980108293,0.0005126393079530112,False,0.0,0.22799847326020078,0.025791958775672898,0.0050445024379968,0.00039496085704640425,0.12,approach,normal,approach guidance tracking,检测到侧偏后立即修正，并沿目标接地点下滑,,0.22799786122271198,0.025806108508730954,0.0038812159147876874,0.0003002629608920138,0.12,120.0,2067.8504639061225
0.11666666666666665,0.016666666666666666,14.174427362254704,2185.825572637745,3.6934372181885106e-05,steps,-12.49999999827364,119.51502680605867,107.01502680778503,71.9980343950167,-248.23791086363897,-0.05109688870499636,1.1981568294125595,0.0007182296604459066,False,0.0,0.22799786122271198,0.025806108508730954,0.0038812159147876874,0.0003002629608920138,0.12,approach,normal,approach guidance tracking,检测到侧偏后立即修正，并沿目标接地点下滑,,0.22799864195136002,0.025818470067770792,0.002440062364320847,0.00018335779780011567,0.12,120.0,2065.825572637745
0.13333333333333333,0.016666666666666666,16.19930107601676,2183.8006989239834,6.231712065310557e-05,steps,-12.499999998273626,119.44614142006851,106.94614142179489,71.99728840069041,-247.73002624144598,-0.01571632869226633,1.1982703146367593,0.0009249826704865044,False,0.0,0.22799864195136002,0.025818470067770792,0.002440062364320847,0.00018335779780011567,0.12,approach,normal,approach guidance tracking,检测到侧偏后立即修正，并沿目标接地点下滑,,0.22800089180851377,0.025829153231647792,0.0007381009545036421,4.578499185266138e-05,0.12,120.0,2063.8006989239834
0.15,0.016666666666666666,18.224153725538937,2181.775846274461,9.500632790244038e-05,steps,-12.500000001544276,119.37740456094794,106.87740455940366,71.99641392284221,-247.1689370321536,0.024766022820630795,1.1983999402728378,0.0011202439974540219,False,0.0,0.22800089180851377,0.025829153231647792,0.0007381009545036421,4.578499185266138e-05,0.12,approach,normal,approach guidance tracking,检测到侧偏后立即修正，并沿目标接地点下滑,,0.22800465693180122,0.025838261881220632,-0.0012085829420402155,-0.0001110095530081098,0.12,120.0,2061.775846274461
0.16666666666666666,0.016666666666666666,20.248981685410808,2179.751018314589,0.00013459565519767505,steps,-12.500000001544247,119.30883060922672,106.80883060768247,71.99540715553337,-246.5573681331747,0.07003831615362031,1.1985492081143363,0.0012925686466956439,False,0.0,0.22800465693180122,0.025838261881220632,-0.0012085829420402155,-0.0001110095530081098,0.12,approach,normal,approach guidance tracking,检测到侧偏后立即修正，并沿目标接地点下滑,,0.22800998043819182,0.025845894092267296,-0.003384820820733625,-0.0002856687267393896,0.12,120.0,2059.751018314589
0.18333333333333332,0.016666666666666666,22.273781220591683,2177.726218779408,0.00018027427964503308,steps,-12.499999998273562,119.24043323672028,106.74043323844671,71.99426390573753,-245.89788537725224,0.11980630893629228,1.198723077661532,0.001431683835557709,False,0.0,0.22800998043819182,0.025845894092267296,-0.003384820820733625,-0.0002856687267393896,0.12,approach,normal,approach guidance tracking,检测到侧偏后立即修正，并沿目标接地点下滑,,0.22801691021830933,0.025852142408328373,-0.005776307642162763,-0.0004769195057709213,0.12,120.0,2057.726218779408
0.19999999999999998,0.016666666666666666,24.298548474444633,2175.7014515255555,0.00023086834734847175,steps,-12.499999995002867,119.17222540325892,106.67222540825605,71.99297868795794,-245.19290025506518,0.17379233171833258,1.1989277698481182,0.0015284456052331932,False,0.0,0.22801691021830933,0.025852142408328373,-0.005776307642162763,-0.0004769195057709213,0.12,approach,normal,approach guidance tracking,检测到侧偏后立即修正，并沿目标接地点下滑,,0.22802550980172626,0.025857094141884453,-0.008369551630605666,-0.0006835684129555102,0.12,120.0,2055.7014515255555
0.21666666666666665,0.016666666666666666,26.32327943145148,2173.6767205685487,0.00028488089694548094,steps,-12.499999995002822,119.1042194465495,106.60421945154667,71.99154851513153,-244.44466572973167,0.23173431702511949,1.1991705339985335,0.0015747851015143395,False,0.0,0.22802550980172626,0.025857094141884453,-0.008369551630605666,-0.0006835684129555102,0.12,approach,normal,approach guidance tracking,检测到侧偏后立即修正，并沿目标接地点下滑,,0.22803581285029254,0.02586083065900541,-0.011151826932065241,-0.0009044970621151146,0.12,120.0,2053.6767205685487
0.2333333333333333,0.016666666666666666,28.34796998671397,2171.652030013286,0.0003405298914839827,steps,-12.500000001544151,119.0364270859007,106.53642708435655,71.98996991932184,-243.65528358861408,0.2933848888131294,1.1994595649007547,0.001563692223827637,False,0.0,0.22803581285029254,0.02586083065900541,-0.011151826932065241,-0.0009044970621151146,0.12,approach,normal,approach guidance tracking,检测到侧偏后立即修正，并沿目标接地点下滑,,0.22804785890849302,0.02586342812542667,-0.014111129808137078,-0.0011386584907387902,0.12,120.0,2051.652030013286
0.24999999999999997,0.016666666666666666,30.372615931724255,2169.6273840682757,0.00039578567378991775,steps,-12.499999998273418,118.96885945475297,106.46885945647955,71.98823955809264,-242.8267146024309,0.358510508000973,1.1998038558388295,0.001489181687559619,False,0.0,0.22804785890849302,0.02586342812542667,-0.014111129808137078,-0.0011386584907387902,0.12,approach,normal,approach guidance tracking,检测到侧偏后立即修正，并沿目标接地点下滑,,0.22806168612124367,0.025864957750925458,-0.017236137214841924,-0.0013850734413908816,0.12,120.0,2049.6273840682757
0.26666666666666666,0.016666666666666666,32.3972129572951,2167.6027870427047,0.0004484072253326437,steps,-12.499999998273397,118.90152720561817,106.40152720734477,71.98635418950386,-241.96078167477052,0.42680614567061986,1.2002124628768136,0.0013453743471857995,False,0.0,0.22806168612124367,0.025864957750925458,-0.017236137214841924,-0.0013850734413908816,0.12,approach,normal,approach guidance tracking,检测到侧偏后立即修正，并沿目标接地点下滑,,0.2280773315150238,0.025865485966749792,-0.02051209541559072,-0.0016424923759814749,0.12,120.0,2047.6027870427047
0.2833333333333333,0.016666666666666666,34.421756656328235,2165.5782433436716,0.0004959459651898021,steps,-12.499999995002698,118.83444046846981,106.33444047346711,71.984310686314,-241.05917180703355,0.49789729507030994,1.2006944249871103,0.0011266467480258453,False,0.0,0.2280773315150238,0.025865485966749792,-0.02051209541559072,-0.0016424923759814749,0.12,approach,normal,approach guidance tracking,检测到侧偏后立即修正，并沿目标接地点下滑,,0.22809483083490972,0.025865074455893082,-0.023920919159813675,-0.0019094053684527552,0.12,120.0,2045.5782433436716
0.3,0.016666666666666666,36.446242527037995,2163.553757472962,0.0005357548384069236,steps,-12.500000001543981,118.76760894214533,106.26760894060135,71.98210605168862,-240.1234468165893,0.5714215399817005,1.2012592602838204,0.0008286052571382898,False,0.0,0.22809483083490972,0.025865074455893082,-0.023920919159813675,-0.0019094053684527552,0.12,approach,normal,approach guidance tracking,检测到侧偏后立即修正，并沿目标接地点下滑,,0.22811421833959147,0.02586378056158084,-0.027445123841189332,-0.0021843666856259433,0.12,120.0,2043.553757472962
0.31666666666666665,0.016666666666666666,38.47066597624549,2161.5293340237545,0.0005650318275130039,steps,-12.499999998273255,118.70104189416945,106.2010418958962,71.97973740086974,-239.15504314231822,0.6470287387441145,1.2019168667466817,0.00044805138951128763,False,0.0,0.22811421833959147,0.02586378056158084,-0.027445123841189332,-0.0021843666856259433,0.12,approach,normal,approach guidance tracking,检测到侧偏后立即修正，并沿目标接地点下滑,,0.22813552702133943,0.025861657283743927,-0.031067833940500313,-0.0024659950098978173,0.12,120.0,2041.5293340237545
0.3333333333333333,0.016666666666666666,40.49502232222574,2159.504977677774,0.0005808622373857957,steps,-12.500000001543894,118.63474822198762,106.13474822044373,71.9772019582426,-238.15527620463862,0.724381388270616,1.2026774211788613,359.9999829465892,False,0.0,0.22813552702133943,0.025861657283743927,-0.031067833940500313,-0.0024659950098978173,0.12,approach,normal,approach guidance tracking,检测到侧偏后立即修正，并沿目标接地点下滑,,0.22815878863015515,0.025858753462815597,-0.03477280009279088,-0.0027529743365041406,0.12,120.0,2039.5049776777741
0.35,0.016666666666666666,42.519306797541454,2157.4806932024585,0.0005802597330657371,steps,-12.500000001543839,118.5687364690543,106.06873646751046,71.97449705288939,-237.12534438127872,0.8031549320536453,1.2035512851611097,359.99943237412623,False,0.0,0.22815878863015515,0.025858753462815597,-0.03477280009279088,-0.0027529743365041406,0.12,approach,normal,approach guidance tracking,检测到侧偏后立即修正，并沿目标接地点下滑,,0.22818403372420376,0.02585511391901919,-0.03854441341019493,-0.003044054613430356,0.12,120.0,2037.4806932024585
0.36666666666666664,0.016666666666666666,44.543514551815086,2155.456485448185,0.0005602060274532313,steps,-12.499999995002447,118.50301485008924,106.0030148550868,71.97162011440089,-236.0663331306125,0.8830380147845581,1.2045489178364943,359.9987964983496,False,0.0,0.22818403372420376,0.02585511391901919,-0.03854441341019493,-0.003044054613430356,0.12,approach,normal,approach guidance tracking,检测到侧偏后立即修正，并沿目标接地点下滑,,0.22821129171550184,0.025850779602967052,-0.042367717190071257,-0.0033380521374524316,0.12,120.0,2035.456485448185
0.3833333333333333,0.016666666666666666,46.56764065444082,2153.4323593455592,0.0005176891243637352,steps,-12.499999998273065,118.43759132003945,105.93759132176638,71.96856866885209,-234.97921922205194,0.9637326855783696,1.2056807953934554,359.9980765215471,False,0.0,0.22821129171550184,0.025850779602967052,-0.042367717190071257,-0.0033380521374524316,0.12,approach,normal,approach guidance tracking,检测到侧偏后立即修正，并沿目标接地点下滑,,0.2282405909057715,0.025845787781156156,-0.04622841610789242,-0.0036338497175285333,0.12,120.0,2033.4323593455592
0.39999999999999997,0.016666666666666666,48.59168009723551,2151.4083199027646,0.00044974003128204945,steps,-12.499999998273013,118.37247355482137,105.87247355654836,71.96534033497159,-233.86487505548698,1.0449545518533,1.2069573370929245,359.9972746386728,False,0.0,0.2282405909057715,0.025845787781156156,-0.04622841610789242,-0.0036338497175285333,0.12,approach,normal,approach guidance tracking,检测到侧偏后立即修正，并沿目标接地点下滑,,0.2282719585358487,0.02584017216079197,-0.0501128829973749,-0.003930396617166129,0.12,120.0,2031.4083199027646
0.41666666666666663,0.016666666666666666,50.615627797028814,2149.384372202971,0.00035346786544283154,steps,-12.500000001543626,118.30766901528226,105.80766901373863,71.96193282054566,-232.7240730534044,1.1264328859604342,1.2083888376714744,359.99639399021345,False,0.0,0.2282719585358487,0.02584017216079197,-0.0501128829973749,-0.003930396617166129,0.12,approach,normal,approach guidance tracking,检测到侧偏后立即修正，并沿目标接地点下滑,,0.22830542081729732,0.025833963076844012,-0.054008163322743365,-0.004226708287716819,0.12,120.0,2029.384372202971
0.4333333333333333,0.016666666666666666,52.639478598194046,2147.360521401806,0.00022609328649958254,steps,-12.500000001543574,118.24318494802098,105.74318494647741,71.958343918925,-231.5574901114387,1.2079106866948521,1.2099854059394433,359.99543861346626,False,0.0,0.22830542081729732,0.025833963076844012,-0.054008163322743365,-0.004226708287716819,0.12,approach,normal,approach guidance tracking,检测到侧偏后立即修正，并沿目标接地点下滑,,0.2283410029741562,0.025827187635519683,-0.05790197744982513,-0.004521865904720879,0.12,120.0,2027.3605214018062
0.44999999999999996,0.016666666666666666,54.66322727511776,2145.3367727248824,6.498019874187587e-05,steps,-12.500000004814172,118.17902843017986,105.67902842536569,71.95457150576273,-230.36571209478717,1.2891446978464087,1.211756909382516,359.99441339250654,False,0.0,0.2283410029741562,0.025827187635519683,-0.05790197744982513,-0.004521865904720879,0.12,approach,normal,approach guidance tracking,检测到侧偏后立即修正，并沿目标接地点下滑,,0.22837872927399758,0.02581986989085082,-0.06178272082409467,-0.004815015719613261,0.12,120.0,2025.3367727248824
0.4666666666666666,0.016666666666666666,56.68686853461012,2143.3131314653897,-0.00013233432429120585,steps,-12.499999998272784,118.11520638889206,105.61520639061928,71.95061353583475,-229.149238369037,1.3699053859664692,1.2137129245655947,359.9933240071165,False,0.0,0.22837872927399758,0.02581986989085082,-0.06178272082409467,-0.004815015719613261,0.12,approach,normal,approach guidance tracking,检测到侧偏后立即修正，并沿目标接地点下滑,,0.22841862306255953,0.02581203100414293,-0.06563946216460677,-0.00510536823909556,0.12,120.0,2023.3131314653897
0.4833333333333333,0.016666666666666666,58.710397018253936,2141.289602981746,-0.0003681119302620738,steps,-12.500000004814046,118.05172564198173,105.55172563716769,71.94646804014859,-227.9084863549631,1.4499768795368047,1.2158626931301095,359.9921768809448,False,0.0,0.22841862306255953,0.02581203100414293,-0.06563946216460677,-0.00510536823909556,0.12,approach,normal,approach guidance tracking,检测到侧偏后立即修正，并沿目标接地点下滑,,0.22846070679109143,0.025803689419466484,-0.0694619397832272,-0.005392197244481335,0.12,120.0,2021.2896029817462
0.49999999999999994,0.016666666666666666,60.73380730469662,2139.2661926953033,-0.0006443867214200143,steps,-12.499999998272633,117.98859285763022,105.4885928593576,71.94213312307399,-226.6437960972391,1.5291568717290605,1.2182150831692167,359.99097912915863,False,0.0,0.22846070679109143,0.025803689419466484,-0.0694619397832272,-0.005392197244481335,0.12,approach,normal,approach guidance tracking,检测到侧偏后立即修正，并沿目标接地点下滑,,0.22850500205802554,0.025794860981265624,-0.07324055613859325,-0.005674838663228484,0.12,120.0,2019.2661926953033
0.5166666666666666,0.016666666666666666,62.757093911881874,2137.242906088118,-0.0009629408494586276,steps,-12.499999998272559,117.92581468275299,105.42581468448043,71.93760251174872,-225.3554677369379,1.6072564889381282,1.2207785557595892,359.9897385058408,False,0.0,0.22850500205802554,0.025794860981265624,-0.07324055613859325,-0.005674838663228484,0.12,approach,normal,approach guidance tracking,检测到侧偏后立即修正，并沿目标接地点下滑,,0.22855158299297823,0.025785560981574418,-0.0769663707338821,-0.005952689304727714,0.12,120.0,2017.2429060881182
0.5333333333333333,0.016666666666666666,64.78025117413087,2135.219748825869,-0.0013252819589629886,steps,-12.50000000154314,117.86339760726032,105.36339760571718,71.93287332764541,-224.0437080290068,1.684100125272908,1.2235616268460363,359.98846332334045,False,0.0,0.22855158299297823,0.025785560981574418,-0.0769663707338821,-0.005952689304727714,0.12,approach,normal,approach guidance tracking,检测到侧偏后立即修正，并沿目标接地点下滑,,0.22860048302354077,0.025775801028788195,-0.08063109088701961,-0.0062252050441849015,0.12,120.0,2015.219748825869
0.55,0.016666666666666666,66.80327333743367,2133.196726662566,-0.0017326235225782432,steps,-12.499999998272385,117.80134813687297,105.30134813860059,71.92794476058832,-222.70863898572006,1.7595252498022564,1.2265726152226257,359.98716241421954,False,0.0,0.22860048302354077,0.025775801028788195,-0.08063109088701961,-0.0062252050441849015,0.12,approach,normal,approach guidance tracking,检测到侧偏后立即修正，并沿目标接地点下滑,,0.22865171075507215,0.025765589676341554,-0.0842270619153136,-0.006491899539019098,0.12,120.0,2013.196726662566
0.5666666666666668,0.016666666666666666,68.82615461762776,2131.1738453823723,-0.002185866535616695,steps,-12.499999998272322,117.73967275223222,105.2396727539599,71.92281519393859,-221.3503245254856,1.8333821870773055,1.229819314493124,359.98584509638437,False,0.0,0.22865171075507215,0.025765589676341554,-0.0842270619153136,-0.006491899539019098,0.12,approach,normal,approach guidance tracking,检测到侧偏后立即修正，并沿目标接地点下滑,,0.22870528447528757,0.025754933734907552,-0.08774725608586156,-0.006752342890123643,0.12,120.0,2011.1738453823723
0.5833333333333335,0.016666666666666666,70.84888917796498,2129.151110822035,-0.002685582443030056,steps,-12.5000000015429,117.67837790181551,105.17837790027261,71.91748307521043,-219.96877065547147,1.9055338711391074,1.2333089744874595,359.98452112131355,False,0.0,0.22870528447528757,0.025754933734907552,-0.08774725608586156,-0.006752342890123643,0.12,approach,normal,approach guidance tracking,检测到侧偏后立即修正，并沿目标接地点下滑,,0.228761221708351,0.025743838124420635,-0.09118525999524874,-0.0070061599475888066,0.12,120.0,2009.1511108220352
0.6000000000000002,0.016666666666666666,72.87147113117139,2127.1285288688287,-0.0032319979132849354,steps,-12.499999998272154,117.61747003546427,105.1174700371921,71.91194691323355,-218.56393010578066,1.975855575809118,1.237048289922992,359.9832006231743,False,0.0,0.228761221708351,0.025743838124420635,-0.09118525999524874,-0.0070061599475888066,0.12,approach,normal,approach guidance tracking,检测到侧偏后立即修正，并沿目标接地点下滑,,0.22881953924287135,0.02573230604704837,-0.09453526081730577,-0.007253028537775833,0.12,120.0,2007.1285288688287
0.6166666666666669,0.016666666666666666,74.89389454143105,2125.106105458569,-0.00382498142397285,steps,-12.499999998272063,117.55695564499557,105.05695564672351,71.90620527607666,-217.13570723517876,2.0442346232454365,1.241043393178014,359.98189406892544,False,0.0,0.22881953924287135,0.02573230604704837,-0.09453526081730577,-0.007253028537775833,0.12,approach,normal,approach guidance tracking,检测到侧偏后立即修正，并沿目标接地点下滑,,0.22888025314949206,0.0257203391738337,-0.09779203151597751,-0.007492677620790313,0.12,120.0,2005.106105458569
0.6333333333333336,0.016666666666666666,76.91615342631276,2123.0838465736874,-0.004464031624290313,steps,-12.49999999827199,117.49684124267154,104.99684124439955,71.90025678908363,-215.6839628333958,2.110570072758358,1.245299850951384,359.9806122095715,False,0.0,0.22888025314949206,0.0257203391738337,-0.09779203151597751,-0.007492677620790313,0.12,approach,normal,approach guidance tracking,检测到侧偏后立即修正，并沿目标接地点下滑,,0.22894337880831422,0.025707937783275087,-0.10095091512200043,-0.007724885388430243,0.12,120.0,2003.0838465736874
0.6500000000000004,0.016666666666666666,78.93824175864118,2121.061758241359,-0.005148267433630522,steps,-12.500000001542558,117.43713338827371,104.93713338673115,71.8941001330562,-214.20851882185383,2.174772391836235,1.2498226645296295,359.9793660327117,False,0.0,0.22894337880831422,0.025707937783275087,-0.10095091512200043,-0.007724885388430243,0.12,approach,normal,approach guidance tracking,检测到侧偏后立即修正，并沿目标接地点下滑,,0.2290089309258129,0.025695100931634525,-0.10400780816971619,-0.007949477312219705,0.12,120.0,2001.0617582413588
0.6666666666666671,0.016666666666666666,80.96015346831494,2119.0398465316853,-0.005876419830368337,steps,-12.4999999982718,117.3778386843804,104.87783868610859,71.88773404257664,-212.70916284211586,2.2367631112822317,1.2546162733888815,359.97816671651253,False,0.0,0.2290089309258129,0.025695100931634525,-0.10400780816971619,-0.007949477312219705,0.12,approach,normal,approach guidance tracking,检测到侧偏后立即修正，并沿目标接地点下滑,,0.22907692355579856,0.02568182659674148,-0.10695914338769792,-0.008166324150730103,0.12,120.0,1999.0398465316853
0.6833333333333338,0.016666666666666666,82.98188244407407,2117.018117555926,-0.006646825280288447,steps,-12.499999998271692,117.31896382024907,104.81896382197738,71.88115730447325,-211.18565272214505,2.296474466309236,1.259684561862768,359.97702558521576,False,0.0,0.22907692355579856,0.02568182659674148,-0.10695914338769792,-0.008166324150730103,0.12,approach,normal,approach guidance tracking,检测到侧偏后立即修正，并沿目标接地点下滑,,0.22914737010991515,0.02566811185286362,-0.10980187173402621,-0.008375339924931152,0.12,120.0,1997.018117555926
0.7000000000000005,0.016666666666666666,85.00342253521973,2114.9965774647803,-0.007457420750095857,steps,-12.499999998271578,117.26051552793395,104.76051552966237,71.8743687563754,-209.6377208107072,2.3538490253841413,1.2650308686121525,359.9759540662768,False,0.0,0.22914737010991515,0.02566811185286362,-0.10980187173402621,-0.008375339924931152,0.12,approach,normal,approach guidance tracking,检测到侧偏后立即修正，并沿目标接地点下滑,,0.2292202833828625,0.025653952978156404,-0.11253344386410166,-0.00857647986986184,0.12,120.0,1994.9965774647803
0.7166666666666672,0.016666666666666666,87.02476755328766,2112.975232446712,-0.008305740248013473,steps,-12.499999998271484,117.20250064706804,104.70250064879656,71.86736728538442,-208.06507817067887,2.4088393085541613,1.2706579986379098,359.97496364921375,False,0.0,0.2292202833828625,0.025653952978156404,-0.11253344386410166,-0.00857647986986184,0.12,approach,normal,approach guidance tracking,检测到侧偏后立即修正，并沿目标接地点下滑,,0.22929567555666905,0.025639345635820158,-0.11515179111582285,-0.008769738370464023,0.12,120.0,1992.9752324467122
0.733333333333334,0.016666666666666666,89.0459112736778,2110.954088726322,-0.009188912830581054,steps,-12.49999999827138,117.14492607316366,104.64492607489228,71.86015182693174,-206.46741862254348,2.4614073969272963,1.276568237583743,359.9740658462316,False,0.0,0.22929567555666905,0.025639345635820158,-0.11515179111582285,-0.008769738370464023,0.12,approach,normal,approach guidance tracking,检测到侧偏后立即修正，并沿目标接地点下滑,,0.2293735582236844,0.0256242849665672,-0.11765530609380566,-0.008955146888967303,0.12,120.0,1990.954088726322
0.7500000000000007,0.016666666666666666,91.06684743724453,2108.9331525627554,-0.010103662012419207,steps,-12.499999998271281,117.08779880604129,104.58779880777001,71.85282944240787,-204.9425772749313,2.51152453491672,1.2827633680826906,359.9732721546729,False,0.0,0.2293735582236844,0.0256242849665672,-0.11765530609380566,-0.008955146888967303,0.12,approach,normal,approach guidance tracking,检测到侧偏后立即修正，并沿目标接地点下滑,,0.22945264544629998,0.025611888346093816,-0.12004282293109039,-0.009132771890764375,0.12,120.0,1988.9331525627554
0.7666666666666674,0.016666666666666666,93.08757279135862,2106.9124272086415,-0.011046307931777974,steps,-12.499999998271178,117.03107366538019,104.53107366710901,71.84539234041065,-203.472841908581,2.559157349906475,1.2892593225737887,359.9725952636569,False,0.0,0.22945264544629998,0.025611888346093816,-0.12004282293109039,-0.009132771890764375,0.12,approach,normal,approach guidance tracking,检测到侧偏后立即修正，并沿目标接地点下滑,,0.2295330388844825,0.02560155774914593,-0.12231297667342948,-0.009302680576566313,0.12,120.0,1986.9124272086415
0.7833333333333341,0.016666666666666666,95.1080838484665,2104.8919161515337,-0.01201272415226869,steps,-12.499999995000397,116.97475118062619,104.47475118562579,71.83783137715159,-202.0457405640129,2.604279465255741,1.2960620669087637,359.9720476614552,False,0.0,0.2295330388844825,0.02560155774914593,-0.12231297667342948,-0.009302680576566313,0.12,approach,normal,approach guidance tracking,检测到侧偏后立即修正，并沿目标接地点下滑,,0.22961484820129344,0.025592895925011794,-0.12446473684629016,-0.009464964165647224,0.12,120.0,1984.8919161515337
0.8000000000000008,0.016666666666666666,97.12837685560321,2102.871623144397,-0.012998344949036124,steps,-12.499999998270965,116.91882064393113,104.41882064566016,71.83014633121942,-200.6574714025691,2.6468742752066414,1.3031721425725304,359.9716415909691,False,0.0,0.22961484820129344,0.025592895925011794,-0.12446473684629016,-0.009464964165647224,0.12,approach,normal,approach guidance tracking,检测到侧偏后立即修正，并沿目标接地点下滑,,0.2296980780164836,0.025585773426380805,-0.1264975398461097,-0.009619747765372905,0.12,120.0,1982.8716231443968
0.8166666666666675,0.016666666666666666,99.14844804940354,2100.8515519505963,-0.013998174314012275,steps,-12.50000000154151,116.86327078347577,104.36327078193426,71.82233705661766,-199.30410643188503,2.6869343124091793,1.310587504870672,359.9713891100799,False,0.0,0.2296980780164836,0.025585773426380805,-0.1264975398461097,-0.009619747765372905,0.12,approach,normal,approach guidance tracking,检测到侧偏后立即修正，并沿目标接地点下滑,,0.22978273214643988,0.025580056338254643,-0.12841125958111374,-0.009767188864039118,0.12,120.0,1980.8515519505963
0.8333333333333343,0.016666666666666666,101.1682936601299,2098.83170633987,-0.015006792723842,steps,-12.499999995000055,116.80809245131104,104.30809245631099,71.8144034035407,-197.98194328565177,2.7244607435347077,1.3183037434747702,359.9713020561988,False,0.0,0.22978273214643988,0.025580056338254643,-0.12841125958111374,-0.009767188864039118,0.12,approach,normal,approach guidance tracking,检测到侧偏后立即修正，并沿目标接地点下滑,,0.22986881407102158,0.02557561948447002,-0.1302061826157067,-0.009907474875689966,0.12,120.0,1978.83170633987
0.850000000000001,0.016666666666666666,103.18790991335267,2096.8120900866475,-0.016018365160837232,steps,-12.499999998270594,116.75327749377402,104.25327749550343,71.8063452322309,-196.68749637866563,2.7594628621329567,1.3263143464658205,359.97139201668483,False,0.0,0.22986881407102158,0.02557561948447002,-0.1302061826157067,-0.009907474875689966,0.12,approach,normal,approach guidance tracking,检测到侧偏后立即修正，并沿目标接地点下滑,,0.22995632697058546,0.025572345330001856,-0.1318829832779238,-0.010040820761216864,0.12,120.0,1976.8120900866475
0.8666666666666677,0.016666666666666666,105.20729303186589,2094.792706968134,-0.017026650180290846,steps,-12.499999998270493,116.69881864836715,104.19881865009665,71.79816242122935,-195.41749850546955,2.7919575850965854,1.334610948853716,359.9716703026628,False,0.0,0.22995632697058546,0.025572345330001856,-0.1318829832779238,-0.010040820761216864,0.12,approach,normal,approach guidance tracking,检测到侧偏后立即修正，并沿目标接地点下滑,,0.2300452736455199,0.025570123957408784,-0.13344269899378391,-0.010167466713128749,0.12,120.0,1974.792706968134
0.8833333333333344,0.016666666666666666,107.2264392376919,2092.773560762308,-0.018025009903222734,steps,-12.500000001541013,116.64470957746231,104.1447095759213,71.78985487490195,-194.16890052490913,2.8219689541284336,1.3431835678723316,359.97214792606707,False,0.0,0.2300452736455199,0.025570123957408784,-0.13344269899378391,-0.010167466713128749,0.12,approach,normal,approach guidance tracking,检测到侧偏后立即修正，并沿目标接地点下滑,,0.23013565641984648,0.025568853080617307,-0.13488670591306826,-0.010287675906790819,0.12,120.0,1972.773560762308
0.9000000000000011,0.016666666666666666,109.24534475416287,2090.754655245837,-0.019006420819901757,steps,-12.499999998270225,116.59094470566387,104.09094470739365,71.78142253035855,-192.93886972920944,2.8495276436427344,1.3520208248533512,359.9728355796418,False,0.0,0.23013565641984648,0.025568853080617307,-0.13488670591306826,-0.010287675906790819,0.12,approach,normal,approach guidance tracking,检测到侧偏后立即修正，并沿目标接地点下滑,,0.23022747708744484,0.02556843787530337,-0.1362166948911262,-0.010401732319649639,0.12,120.0,1970.754655245837
0.9166666666666679,0.016666666666666666,111.26400580806987,2088.7359941919303,-0.019963485299008727,steps,-12.49999999827009,116.53751926696162,104.03751926869154,71.77286536345414,-191.7247870289463,2.8746704763969704,1.3611101536652375,359.9737436196369,False,0.0,0.23022747708744484,0.02556843787530337,-0.1362166948911262,-0.010401732319649639,0.12,approach,normal,approach guidance tracking,检测到侧偏后立即修正，并沿目标接地点下滑,,0.23032073683153126,0.02556879092254602,-0.13743464788494458,-0.010509938619562642,0.12,120.0,1968.7359941919303
0.9333333333333346,0.016666666666666666,113.2824186318613,2086.717581368139,-0.020888443706534747,steps,-12.49999999826995,116.48442916026559,103.98442916199565,71.76418339421292,-190.52424309328958,2.8974399480283854,1.3704379957875497,359.97488205094965,False,0.0,0.23032073683153126,0.02556879092254602,-0.13743464788494458,-0.010509938619562642,0.12,approach,normal,approach guidance tracking,检测到侧偏后立即修正，并沿目标接地点下滑,,0.2304154361855524,0.025569831981144518,-0.13854281481598102,-0.01061261412304601,0.12,120.0,1966.7175813681388
0.9500000000000013,0.016666666666666666,115.30057946588077,2084.6994205341193,-0.021773187047342688,steps,-12.500000001540496,116.43167094295295,103.93167094141245,71.75537669151265,-189.33503357546783,2.9178837615520066,1.3799899821674049,359.9762605144779,False,0.0,0.2304154361855524,0.025569831981144518,-0.13854281481598102,-0.01061261412304601,0.12,approach,normal,approach guidance tracking,检测到侧偏后立即修正，并沿目标接地点下滑,,0.23051157497811345,0.025571487830121344,-0.1395436909468467,-0.01071009282401836,0.12,120.0,1964.6994205341193
0.966666666666668,0.016666666666666666,117.31848456062971,2082.6815154393703,-0.02260927005063371,steps,-12.500000001540391,116.37924172510763,103.87924172356725,71.74644537715429,-188.1551535455971,2.9360543727655624,1.3897511020714348,359.9778882764607,False,0.0,0.23051157497811345,0.025571487830121344,-0.1395436909468467,-0.01071009282401836,0.12,approach,normal,approach guidance tracking,检测到侧偏后立即修正，并沿目标接地点下滑,,0.23060915230315843,0.025573692014431746,-0.14043999481374492,-0.010802721493369053,0.12,120.0,1962.6815154393703
0.9833333333333347,0.016666666666666666,119.3361301790433,2080.6638698209567,-0.02338792462844634,steps,-12.500000001540231,116.32713920032029,103.82713919878006,71.73738962922813,-186.98279124463303,2.9520085474007596,1.3997058592044713,359.9797742196028,False,0.0,0.23060915230315843,0.025573692014431746,-0.14043999481374492,-0.010802721493369053,0.12,approach,normal,approach guidance tracking,检测到侧偏后立即修正，并沿目标接地点下滑,,0.2307081664740106,0.025576384667361125,-0.14123464675175634,-0.010890857849536478,0.12,120.0,1960.6638698209567
1.0000000000000013,0.016666666666666666,121.35351259876464,2078.6464874012354,-0.024100073643570512,steps,-12.499999998269418,116.27536148777399,103.77536148950458,71.72820968505751,-185.81632126565776,2.9658069307599657,1.409838415415653,359.98192683579276,False,0.0,0.2307081664740106,0.025576384667361125,-0.14123464675175634,-0.010890857849536478,0.12,approach,normal,approach guidance tracking,检测到侧偏后立即修正，并沿目标接地点下滑,,0.2308086150164516,0.02557951217876609,-0.14193074804548816,-0.01097486880013574,0.12,120.0,1958.6464874012354
1.016666666666668,0.016666666666666666,123.37062811441042,2076.6293718855895,-0.024736344929946016,steps,-12.500000004810618,116.22390717749052,103.7239071726799,71.71890584341784,-184.65429726058525,2.9775136304822043,1.42013272235465,359.9843542202428,False,0.0,0.2308086150164516,0.02557951217876609,-0.14193074804548816,-0.01097486880013574,0.12,approach,normal,approach guidance tracking,检测到侧偏后立即修正，并沿目标接地点下滑,,0.2309104946339268,0.025583026994500244,-0.14253156073327727,-0.011055128754544107,0.12,120.0,1956.6293718855895
1.0333333333333345,0.016666666666666666,125.38747303981198,2074.612526960188,-0.02528708551473785,steps,-12.50000000153981,116.1727751881381,103.6727751865983,71.7094784663628,-183.49544426359472,2.9871958129925114,1.430572641476113,359.9870640668956,False,0.0,0.2309104946339268,0.025583026994500244,-0.14253156073327727,-0.011055128754544107,0.12,approach,normal,approach guidance tracking,检测到侧偏后立即修正，并沿目标接地点下滑,,0.23101380121120504,0.02558688726865985,-0.1430404880891255,-0.01113201800729057,0.12,120.0,1954.612526960188
1.0500000000000012,0.016666666666666666,127.40404371022487,2072.595956289775,-0.02574237599673942,steps,-12.500000004810321,116.12196482453965,103.62196481972933,71.69992798046404,-182.33865071488503,2.9949233141038287,1.441142052819348,359.9900636649579,False,0.0,0.23101380121120504,0.02558688726865985,-0.1430404880891255,-0.01113201800729057,0.12,approach,normal,approach guidance tracking,检测到侧偏后立即修正，并沿目标接地点下滑,,0.23111852978912922,0.025591056650098275,-0.1434610558026722,-0.011205921191966542,0.12,120.0,1952.5959562897751
1.0666666666666678,0.016666666666666666,129.42033648449458,2070.579663515505,-0.026092045040740818,steps,-12.499999994998163,116.07147561631102,103.57147562131286,71.69025487771816,-181.1829602619515,3.0007682641606586,1.4518249530139982,359.9933598964392,False,0.0,0.23111852978912922,0.025591056650098275,-0.1434610558026722,-0.011205921191966542,0.12,approach,normal,approach guidance tracking,检测到侧偏后立即修正，并沿目标接地点下滑,,0.2312246745827578,0.025595503904266154,-0.14379689387398523,-0.011277225805357578,0.12,120.0,1950.5796635155052
1.0833333333333344,0.016666666666666666,131.436347747173,2068.563652252827,-0.026325683951804534,steps,-12.500000001539332,116.02130741407429,103.52130741253495,71.68045971588673,-180.0275634087107,3.0048047280385437,1.4626055429804894,359.9969592345855,False,0.0,0.2312246745827578,0.025595503904266154,-0.14379689387398523,-0.011277225805357578,0.12,approach,normal,approach guidance tracking,检测到侧偏后立即修正，并沿目标接地点下滑,,0.231332228959946,0.02560020271570798,-0.1440517192365192,-0.011346320801377426,0.12,120.0,1948.563652252827
1.100000000000001,0.016666666666666666,133.45207391057312,2066.5479260894267,-0.026432661297290473,steps,-12.499999998268517,115.97146019538943,103.4714601971209,71.67054311858065,-178.87178907687476,3.0071083602427873,1.4734683058080553,0.00086774311594159,False,0.0,0.231332228959946,0.02560020271570798,-0.1440517192365192,-0.011346320801377426,0.12,approach,normal,approach guidance tracking,检测到侧偏后立即修正，并沿目标接地点下滑,,0.2314411854752462,0.025605131278766787,-0.14422931911847026,-0.011413595254364424,0.12,120.0,1946.5479260894267
1.1166666666666676,0.016666666666666666,135.46751141675915,2064.532488583241,-0.026402137547785726,steps,-12.499999998268363,115.92193414842772,103.42193415015936,71.66050577489894,-177.71509613764013,3.0077560752836248,1.4843980753028192,0.0050910761798480635,False,0.0,0.2314411854752462,0.025605131278766787,-0.14422931911847026,-0.011413595254364424,0.12,approach,normal,approach guidance tracking,检测到侧偏后立即修正，并沿目标接地点下滑,,0.23155153585916297,0.0256102720873631,-0.1443335351497724,-0.01147943709122771,0.12,120.0,1944.532488583241
1.1333333333333342,0.016666666666666666,137.48265673946253,2062.5173432605375,-0.02622307971097761,steps,-12.499999994997527,115.87272959819867,103.37272960320115,71.65034843875674,-176.5570649664975,3.006825733443199,1.4953800957040904,0.009634478965756846,False,0.0,0.23155153585916297,0.0256102720873631,-0.1443335351497724,-0.01147943709122771,0.12,approach,normal,approach guidance tracking,检测到侧偏后立即修正，并沿目标接地点下滑,,0.23166327103947743,0.025615611612180372,-0.14436824821918914,-0.011544231891859533,0.12,120.0,1942.5173432605375
1.1500000000000008,0.016666666666666666,139.49750638591934,2060.502493614081,-0.025884275935002497,steps,-12.500000001538703,115.82384696756692,103.32384696602821,71.6400719279433,-175.3973890683695,3.004395841991807,1.5064000730696603,0.014502788903491342,False,0.0,0.23166327103947743,0.025615611612180372,-0.14436824821918914,-0.011544231891859533,0.12,approach,normal,approach guidance tracking,检测到侧偏后立即修正，并沿目标接地点下滑,,0.23177638115955163,0.025621140005169653,-0.14433736408337106,-0.011608361757186233,0.12,120.0,1940.5024936140808
1.1666666666666674,0.016666666666666666,141.51205689862513,2058.487943101375,-0.025374350059877007,steps,-12.499999998267867,115.77528672864673,103.27528673037887,71.62967712288217,-174.23586681518256,3.0005452718570798,1.5174442188306623,0.01970043741070974,False,0.0,0.23177638115955163,0.025621140005169653,-0.14433736408337106,-0.011608361757186233,0.12,approach,normal,approach guidance tracking,检测到侧偏后立即修正，并沿目标接地点下滑,,0.23189085560193837,0.025626850800748946,-0.1442447997273095,-0.011672204244157674,0.12,120.0,1938.487943101375
1.183333333333334,0.016666666666666666,143.5263048570024,2056.4736951429977,-0.024681776097379232,steps,-12.499999998267702,115.72704941233616,103.22704941406846,71.61916496521542,-173.07239477728672,2.9953529896996676,1.5284992860127673,0.025231452143326154,False,0.0,0.23189085560193837,0.025626850800748946,-0.1442447997273095,-0.011672204244157674,0.12,approach,normal,approach guidance tracking,检测到侧偏后立即修正，并沿目标接地点下滑,,0.23200668300363897,0.02563274070986994,-0.1440944704733533,-0.011736131366911248,0.12,120.0,1936.4736951429977
1.2000000000000006,0.016666666666666666,145.54024687897964,2054.45975312102,-0.023794892621207018,steps,-12.50000000480888,115.67913557324884,103.17913556843996,71.60853645575044,-171.9069593807339,2.9888960340214745,1.5395525873969638,0.031099440425344824,False,0.0,0.23200668300363897,0.02563274070986994,-0.1440944704733533,-0.011736131366911248,0.12,approach,normal,approach guidance tracking,检测到侧偏后立即修正，并沿目标接地点下滑,,0.23212385128703866,0.025638809328416497,-0.14389019247899895,-0.01180050164304057,0.12,120.0,1934.4597531210202
1.2166666666666672,0.016666666666666666,147.55387962247858,2052.4461203775213,-0.02270191772842812,steps,-12.49999999826737,115.63154572447725,103.13154572620988,71.59779265249782,-170.7396274279736,2.981247620456091,1.5505920086061764,0.03730757725648269,False,0.0,0.23212385128703866,0.025638809328416497,-0.14389019247899895,-0.01180050164304057,0.12,approach,normal,approach guidance tracking,检测到侧偏后立即修正，并沿目标接地点下滑,,0.2322423476951809,0.025645058787473887,-0.14363559151178795,-0.01186565269885196,0.12,120.0,1932.4461203775213
1.2333333333333338,0.016666666666666666,149.56719978681488,2050.432800213185,-0.021390964410336912,steps,-12.500000004808534,115.58428041372738,103.08428040891886,71.58693466900387,-169.5705388225162,2.972477354009722,1.5616060288593563,0.043858619120210295,False,0.0,0.2322423476951809,0.025645058787473887,-0.14363559151178795,-0.01186565269885196,0.12,approach,normal,approach guidance tracking,检测到侧偏后立即修正，并沿目标接地点下滑,,0.23236215879805952,0.02565149357591211,-0.14333411330169427,-0.01193190226762976,0.12,120.0,1930.4328002131851
1.2500000000000004,0.016666666666666666,151.58020411401216,2048.4197958859877,-0.019850055425380656,steps,-12.50000000153769,115.53734005023826,103.03734004870057,71.57596367224856,-168.39989915078675,2.962651429242857,1.572583735727902,0.050754916980268024,False,0.0,0.23236215879805952,0.02565149357591211,-0.14333411330169427,-0.01193190226762976,0.12,approach,normal,approach guidance tracking,检测到侧偏后立即修正，并沿目标接地点下滑,,0.23248327054898563,0.02565812017900946,-0.14298903330303436,-0.011999549130401497,0.12,120.0,1928.4197958859877
1.266666666666667,0.016666666666666666,153.59288939002113,2046.4071106099789,-0.018067137702659122,steps,-12.499999998266816,115.49072506850493,102.99072507023811,71.56488088035255,-167.2279725590355,2.951832819019904,1.5835148345584538,0.05799842852877108,False,0.0,0.23248327054898563,0.02565812017900946,-0.14298903330303436,-0.011999549130401497,0.12,approach,normal,approach guidance tracking,检测到侧偏后立即修正，并沿目标接地点下滑,,0.23260566828262177,0.02566494696902117,-0.1426034658969598,-0.012068874002504544,0.12,120.0,1926.4071106099789
1.2833333333333337,0.016666666666666666,155.6052524458424,2044.3947475541577,-0.016030096302288736,steps,-12.500000001537327,115.44443577309204,102.94443577155471,71.55368756034413,-166.0550749501484,2.940081452494453,1.5943896530390622,0.06559072974896862,False,0.0,0.23260566828262177,0.02566494696902117,-0.1426034658969598,-0.012068874002504544,0.12,approach,normal,approach guidance tracking,检测到侧偏后立即修正，并沿目标接地点下滑,,0.23272933676970106,0.025671983876332544,-0.14218037306754494,-0.012140140369411162,0.12,120.0,1924.3947475541577
1.3000000000000003,0.016666666666666666,157.61729015855894,2042.382709841441,-0.013726767956707088,steps,-12.50000000153714,115.39847237770492,102.89847237616777,71.54238502570455,-164.88156751252728,2.9274543829531567,1.6051991413675573,0.07353302585335977,False,0.0,0.23272933676970106,0.025671983876332544,-0.14218037306754494,-0.012140140369411162,0.12,approach,normal,approach guidance tracking,检测到侧偏后立即修正，并沿目标接地点下滑,,0.23285426023944142,0.025679242211114815,-0.1417225725823054,-0.012213595275065684,0.12,120.0,1922.382709841441
1.3166666666666669,0.016666666666666666,159.6289994522751,2040.3710005477249,-0.011144954214874866,steps,-12.499999994995614,115.35283499083164,102.85283499583602,71.5309746339185,-163.70785059060285,2.914005946100038,1.6159348684633679,0.08182616165525557,False,0.0,0.23285426023944142,0.025679242211114815,-0.1417225725823054,-0.012213595275065684,0.12,approach,normal,approach guidance tracking,检测到侧偏后立即修正，并沿目标接地点下滑,,0.23298042241151473,0.025686734457417353,-0.14123274570597322,-0.012289470065794103,0.12,120.0,1920.3710005477249
1.3333333333333335,0.016666666666666666,161.64037729896697,2038.359622701033,-0.00827243420929511,steps,-12.500000004807433,115.30752363536688,102.80752363055944,71.5194577839621,-162.53435790264197,2.8997879093250543,1.6265890146447375,0.09047063142898205,False,0.0,0.23298042241151473,0.025686734457417353,-0.14123274570597322,-0.012289470065794103,0.12,approach,normal,approach guidance tracking,检测到侧偏后立即修正，并沿目标接地点下滑,,0.2331078065226513,0.02569447410282578,-0.1407134444744908,-0.012367981092660641,0.12,120.0,1918.359622701033
1.35,0.016666666666666666,163.65142071924512,2036.3485792807548,-0.005096977063841592,steps,-12.499999994995209,115.26253815612397,102.76253816112876,71.50783591374815,-161.36155110888097,2.884849612465609,1.63715436117341,0.09946658831090381,False,0.0,0.2331078065226513,0.02569447410282578,-0.1407134444744908,-0.012367981092660641,0.12,approach,normal,approach guidance tracking,检测到侧偏后立即修正，并沿目标接地点下滑,,0.23323639537393662,0.02570247539859288,-0.14016709855445522,-0.01244933037496903,0.12,120.0,1916.3485792807548
1.3666666666666667,0.016666666666666666,165.66212678303248,2034.3378732169676,-0.001606353958565442,steps,-12.50000000153639,115.21787832085946,102.71787831932306,71.49611049757999,-160.18991473024437,2.8692381005373364,1.6476242770484584,0.10881385329029863,False,0.0,0.23323639537393662,0.02570247539859288,-0.14016709855445522,-0.01244933037496903,0.12,approach,normal,approach guidance tracking,检测到侧偏后立即修正，并沿目标接地点下滑,,0.23336617134317525,0.025710753270292642,-0.1395960217116474,-0.012533706227437793,0.12,120.0,1914.3378732169676
1.3833333333333333,0.016666666666666666,167.67249261016076,2032.3275073898392,0.0022116501340642444,steps,-12.499999991724177,115.17354369826047,102.6735437065363,71.48428304360655,-159.01995141545018,2.852998248880517,1.657992703410423,0.11851192383591702,False,0.0,0.23336617134317525,0.025710753270292642,-0.1395960217116474,-0.012533706227437793,0.12,approach,normal,approach guidance tracking,检测到侧偏后立即修正，并沿目标接地点下滑,,0.233497116437386,0.025719323079013562,-0.13900241791079299,-0.012621283853418784,0.12,120.0,1912.3275073898392
1.4,0.016666666666666666,169.68251537088855,2030.3174846291115,0.006369225028628293,steps,-12.499999994994631,115.12953379622243,102.62953380122781,71.47235509122454,-157.8521775523489,2.836172881140808,1.6682541358955578,0.12855998220085593,False,0.0,0.233497116437386,0.025719323079013562,-0.13900241791079299,-0.012621283853418784,0.12,approach,normal,approach guidance tracking,检测到侧偏后立即修正，并沿目标接地点下滑,,0.2336292122990813,0.025728200580964478,-0.13838838706732698,-0.012712225906376537,0.12,120.0,1910.3174846291115
1.4166666666666665,0.016666666666666666,171.69219228634267,2028.3078077136574,0.010878524210557983,steps,-12.49999999172376,115.08584790594266,102.5858479142189,71.46032820860061,-156.68711921726538,2.818802880477471,1.678403605259286,0.13895690344517375,False,0.0,0.2336292122990813,0.025728200580964478,-0.13838838706732698,-0.012712225906376537,0.12,approach,normal,approach guidance tracking,检测到侧偏后立即修正，并沿目标接地点下滑,,0.23376244026406004,0.025737401686044103,-0.1377559304706619,-0.012806683021702554,0.12,120.0,1908.3078077136574
1.4333333333333331,0.016666666666666666,173.70152062888891,2026.2984793711112,0.015751654014273902,steps,-12.499999998264917,115.04248520930946,102.54248521104455,71.44820399016433,-155.52530845451622,2.800927294368563,1.68843665656653,0.14970126321253024,False,0.0,0.23376244026406004,0.025737401686044103,-0.1377559304706619,-0.012806683021702554,0.12,approach,normal,approach guidance tracking,检测到侧偏后立即修正，并沿目标接地点下滑,,0.23389678137215844,0.025746942416535308,-0.13710695589727206,-0.012904794320802767,0.12,120.0,1906.2984793711112
1.4499999999999997,0.016666666666666666,175.7104977224339,2024.289502277566,0.02100066308692259,steps,-12.50000000480605,114.99944472793533,102.49944472312927,71.43598405414613,-154.3672798770007,2.78258343336079,1.6983493272263162,0.1607913452940776,False,0.0,0.23389678137215844,0.025746942416535308,-0.13710695589727206,-0.012904794320802767,0.12,approach,normal,approach guidance tracking,检测到侧偏后立即修正，并沿目标接地点下滑,,0.23403221640596558,0.02575683876203306,-0.1364432824308168,-0.013006687889269088,0.12,120.0,1904.289502277566
1.4666666666666663,0.016666666666666666,177.71912094266176,2022.2808790573383,0.026637532130127817,steps,-12.500000001535165,114.95672532324528,102.45672532171011,71.4236700401948,-153.21356757738488,2.763806964091383,1.7081381241271507,0.17222514900984884,False,0.0,0.23403221640596558,0.02575683876203306,-0.1364432824308168,-0.013006687889269088,0.12,approach,normal,approach guidance tracking,检测到侧偏后立即修正，并沿目标接地点下滑,,0.23416872591939578,0.02576710658104185,-0.1357666450055012,-0.013112481230825115,0.12,120.0,1902.2808790573383
1.483333333333333,0.016666666666666666,179.72738771720992,2020.27261228279,0.03267416391322517,steps,-12.499999998264297,114.91432573845266,102.41432574018836,71.41126360700952,-152.06470233842361,2.7446319968907296,1.717800000109726,0.18400039643502747,False,0.0,0.23416872591939578,0.02576710658104185,-0.1357666450055012,-0.013112481230825115,0.12,approach,normal,approach guidance tracking,检测到侧偏后立即修正，并沿目标接地点下滑,,0.23430629025854677,0.025777761542287905,-0.1350786986879358,-0.01322228169862341,0.12,120.0,1900.27261228279
1.4999999999999996,0.016666666666666666,181.73529552578668,2018.2647044742134,0.039122373552392405,steps,-12.500000004805425,114.87224455658327,102.37224455177784,71.39876643008489,-150.92120913022177,2.7250911682569954,1.7273323299938614,0.19611453949575025,False,0.0,0.23430629025854677,0.025777761542287905,-0.1350786986879358,-0.01322228169862341,0.12,approach,normal,approach guidance tracking,检测到侧偏后立即修正，并沿目标接地点下滑,,0.2344448895963133,0.02578881901473605,-0.13438102271187383,-0.013336186905365229,0.12,120.0,1898.2647044742134
1.5166666666666662,0.016666666666666666,183.7428419002351,2016.2571580997649,0.0459938790509482,steps,-12.499999998263862,114.83048017894461,102.33048018068075,71.38618019948119,-149.78360488146328,2.7052157184779486,1.7367328863576312,0.20856476695649012,False,0.0,0.2344448895963133,0.02578881901473605,-0.13438102271187383,-0.013336186905365229,0.12,approach,normal,approach guidance tracking,检测到侧偏后立即修正，并沿目标接地点下滑,,0.23458450396302002,0.02580029398107853,-0.13367512427939424,-0.013454285113614503,0.12,120.0,1896.2571580997649
1.5333333333333328,0.016666666666666666,185.75002442454584,2014.249975575454,0.053300292096846065,steps,-12.50000000480499,114.78903095159616,102.28903094679117,71.37350661765308,-148.65239651122587,2.6850355646601445,1.7459998152482126,0.221348011318606,False,0.0,0.23458450396302002,0.02580029398107853,-0.13367512427939424,-0.013454285113614503,0.12,approach,normal,approach guidance tracking,检测到侧偏后立即修正，并沿目标接地点下滑,,0.23472511324971138,0.02581220106610293,-0.13296244214133732,-0.013576655607584486,0.12,120.0,1894.249975575454
1.5499999999999994,0.016666666666666666,187.75684073482176,2012.2431592651783,0.06105310911406695,steps,-12.49999999826343,114.7478949782768,102.24789498001337,71.36074739745635,-147.52807920766432,2.664579369411733,1.7551316119860418,0.23446095564731664,False,0.0,0.23472511324971138,0.02581220106610293,-0.13296244214133732,-0.013576655607584486,0.12,approach,normal,approach guidance tracking,检测到侧偏后立即修正，并沿目标接地点下滑,,0.2348666972657445,0.02582455434717025,-0.13224434996909634,-0.013703369047588402,0.12,120.0,1892.2431592651783
1.566666666666666,0.016666666666666666,189.7632885192005,2010.2367114807994,0.06926370256522041,steps,-12.500000001533873,114.70707032237853,102.20707032084465,71.34790426006734,-146.41113493933543,2.6438746054121536,1.764127097207309,0.24790004034219865,False,0.0,0.2348666972657445,0.02582455434717025,-0.13224434996909634,-0.013703369047588402,0.12,approach,normal,approach guidance tracking,检测到侧偏后立即修正，并沿目标接地点下滑,,0.23500923572740154,0.025837367452258043,-0.13152215952920962,-0.013834487808264384,0.12,120.0,1890.2367114807994
1.5833333333333326,0.016666666666666666,191.7693655177336,2008.2306344822664,0.07794331250315434,steps,-12.499999998262966,114.66655484040722,102.16655484214425,71.3349789331653,-145.3020311854049,2.622947616089896,1.7729853932733133,0.26166146986427413,False,0.0,0.23500923572740154,0.025837367452258043,-0.13152215952920962,-0.013834487808264384,0.12,approach,normal,approach guidance tracking,检测到侧偏后立即修正，并沿目标接地点下滑,,0.2351527083096793,0.025850653399627298,-0.1307971236715848,-0.013970066301608871,0.12,120.0,1888.2306344822664
1.5999999999999992,0.016666666666666666,193.7750695222303,2006.2249304777697,0.08710303836985739,steps,-12.49999999826276,114.62634629582489,102.12634629756212,71.32197314903429,-144.20121987025507,2.601823672618171,1.7817059011597844,0.2757412194308691,False,0.0,0.2351527083096793,0.025850653399627298,-0.1307971236715848,-0.013970066301608871,0.12,approach,normal,approach guidance tracking,检测到侧偏后立即修正，并沿目标接地点下滑,,0.2352970946485768,0.025864424645913608,-0.13007043914161293,-0.014110151285781945,0.12,120.0,1886.2249304777697
1.6166666666666658,0.016666666666666666,195.78039837606426,2004.2196016239357,0.09675383104128112,steps,-12.499999998262531,114.58644233097732,102.0864423327148,71.30888949421647,-143.10913380057607,2.580527027427774,1.7902882779249027,0.2901350416876991,False,0.0,0.2352970946485768,0.025864424645913608,-0.13007043914161293,-0.014110151285781945,0.12,approach,normal,approach guidance tracking,检测到侧偏后立即修正，并沿目标接地点下滑,,0.23544236415031009,0.02587869280756444,-0.12934324922589474,-0.014254782160582307,0.12,120.0,1884.2196016239357
1.6333333333333324,0.016666666666666666,197.78534999788667,2002.2146500021133,0.1069064852382736,steps,-12.499999991720959,114.54684045827989,102.04684046655893,71.29573189506723,-142.02618340125235,2.5590809648777206,1.7987324494433958,0.3048384836850665,False,0.0,0.23544236415031009,0.02587869280756444,-0.12934324922589474,-0.014254782160582307,0.12,approach,normal,approach guidance tracking,检测到侧偏后立即修正，并沿目标接地点下滑,,0.23558847016601395,0.02589346846864283,-0.12861664644135223,-0.014403991407049607,0.12,120.0,1882.2146500021133
1.649999999999999,0.016666666666666666,199.78992241896972,2000.2100775810302,0.11757163264605054,steps,-12.500000004803415,114.5075381073706,102.0075381025672,71.28250127787116,-140.95275254813933,2.5375078492680117,1.8070386543564623,0.31984691305760266,False,0.0,0.23558847016601395,0.02589346846864283,-0.12861664644135223,-0.014403991407049607,0.12,approach,normal,approach guidance tracking,检测到侧偏后立即修正，并沿目标接地点下滑,,0.2357354020615103,0.02590876181986091,-0.12789167525920098,-0.014557805155728534,0.12,120.0,1880.2100775810302
1.6666666666666656,0.016666666666666666,201.79411369847313,1998.2058863015268,0.1287597353292623,steps,-12.500000004803175,114.46853255215787,101.9685325473547,71.26919938928147,-139.889224535555,2.515851843141398,1.8152074637178477,0.33515573981508795,False,0.0,0.2357354020615103,0.02590876181986091,-0.12789167525920098,-0.014557805155728534,0.12,approach,normal,approach guidance tracking,检测到侧偏后立即修正，并沿目标接地点下滑,,0.23588313938596583,0.025924582785473035,-0.1271704263843723,-0.014716332836492894,0.12,120.0,1878.2058863015268
1.6833333333333322,0.016666666666666666,203.7979219460989,1996.202078053901,0.14048108743210366,steps,-12.50000000153228,114.42982099731013,101.92982099577785,71.25582796594622,-138.8359617220829,2.494155811727282,1.8232396037794047,0.3507601343059682,False,0.0,0.23588313938596583,0.025924582785473035,-0.1271704263843723,-0.014716332836492894,0.12,approach,normal,approach guidance tracking,检测到侧偏后立即修正，并沿目标接地点下滑,,0.23603166182059526,0.025940940574879768,-0.12645492330339075,-0.014879675186585296,0.12,120.0,1876.202078053901
1.6999999999999988,0.016666666666666666,205.80134532158866,1994.1986546784115,0.15274580690744707,steps,-12.49999999826137,114.39140054409687,101.8914005458355,71.24238873724714,-137.7933084529505,2.472460416033076,1.8311359342241778,0.3666550256292543,False,0.0,0.23603166182059526,0.025940940574879768,-0.12645492330339075,-0.014879675186585296,0.12,approach,normal,approach guidance tracking,检测到侧偏后立即修正，并沿目标接地点下滑,,0.2361809491519495,0.025957843750937022,-0.1257470786856169,-0.015047920772271949,0.12,120.0,1874.1986546784115
1.7166666666666655,0.016666666666666666,207.80438203431905,1992.1956179656809,0.165563827202622,steps,-12.499999998261117,114.35326820810594,101.85326820984483,71.22888342369309,-136.761591216874,2.4508041638585203,1.8388974313702926,0.38283511208236837,False,0.0,0.2361809491519495,0.025957843750937022,-0.1257470786856169,-0.015047920772271949,0.12,approach,normal,approach guidance tracking,检测到侧偏后立即修正，并沿目标接地点下滑,,0.2363309812880079,0.025975300247889507,-0.12504869697256488,-0.015221146331100522,0.12,120.0,1872.1956179656809
1.733333333333332,0.016666666666666666,209.80703034286879,1990.1929696571312,0.17894488932191788,steps,-12.50000000153157,114.31542091597292,101.81542091444135,71.21531373571705,-135.74111864392202,2.429223459848015,1.8465251721604026,0.39929487159951804,False,0.0,0.2363309812880079,0.025975300247889507,-0.12504869697256488,-0.015221146331100522,0.12,approach,normal,approach guidance tracking,检测到侧偏后立即修正，并沿目标接地点下滑,,0.23648173827320787,0.025993317369037195,-0.1243614769226896,-0.015399417110737147,0.12,120.0,1870.1929696571312
1.7499999999999987,0.016666666666666666,211.8092885545678,1988.1907114454323,0.19289853426509265,steps,-12.500000001531292,114.27785548348372,101.77785548195243,71.2016813724201,-134.73217810400965,2.407752656022006,1.8540203190617517,0.41602857218760614,False,0.0,0.23648173827320787,0.025993317369037195,-0.1243614769226896,-0.015399417110737147,0.12,approach,normal,approach guidance tracking,检测到侧偏后立即修正，并沿目标接地点下滑,,0.23663320030746257,0.026011901662222177,-0.12368701418093056,-0.015582787209962807,0.12,120.0,1868.1907114454323
1.7666666666666653,0.016666666666666666,213.81115502502695,1986.188844974973,0.20743409584132744,steps,-12.500000004801732,114.24056866872667,101.74056866392493,71.18798802154507,-133.73503636748472,2.3864293838625867,1.8613841394043587,0.43303033934832763,False,0.0,0.23663320030746257,0.026011901662222177,-0.12368701418093056,-0.015582787209962807,0.12,approach,normal,approach guidance tracking,检测到侧偏后立即修正，并沿目标接地点下滑,,0.23678534773691437,0.026031058979361435,-0.12302705834938164,-0.01577132084474407,0.12,120.0,1866.188844974973
1.7833333333333319,0.016666666666666666,215.81262815764438,1984.1873718423556,0.222560695848723,steps,-12.500000004801475,114.2035571794543,101.70355717465281,71.1742353591834,-132.74995200025683,2.365300415597217,1.8686180271005752,0.4502942201576072,False,0.0,0.23678534773691437,0.026031058979361435,-0.12302705834938164,-0.01577132084474407,0.12,approach,normal,approach guidance tracking,检测到侧偏后立即修正，并沿目标接地点下滑,,0.23693816105613189,0.026050794878579097,-0.12238379541306374,-0.015965115577482255,0.12,120.0,1864.1873718423556
1.7999999999999985,0.016666666666666666,217.8137064030773,1982.1862935969227,0.2382872414996351,steps,-12.500000001530545,114.16681760702599,101.66681760549545,71.1604250450712,-131.77716533406917,2.3444093187321133,1.8757234080693739,0.4678140412667122,False,0.0,0.23693816105613189,0.026050794878579097,-0.12238379541306374,-0.015965115577482255,0.12,approach,normal,approach guidance tracking,检测到侧偏后立即修正，并沿目标接地点下滑,,0.2370916209764528,0.026071114255828462,-0.12175925269142847,-0.01616425327168235,0.12,120.0,1862.1862935969227
1.816666666666665,0.016666666666666666,219.8143882586885,1980.1856117413115,0.25462241789340734,steps,-12.499999994988952,114.13034651672415,101.63034652173519,71.14655872360785,-130.81690060980506,2.323796533548905,1.8827017307204246,0.48558342263466653,False,0.0,0.2370916209764528,0.026071114255828462,-0.12175925269142847,-0.01616425327168235,0.12,approach,normal,approach guidance tracking,检测到侧偏后立即修正，并沿目标接地点下滑,,0.2372457083975084,0.026092021478242577,-0.12115530275936283,-0.016368800584899243,0.12,120.0,1860.1856117413115
1.8333333333333317,0.016666666666666666,221.81467226803275,1978.1853277319672,0.2715746809795433,steps,-12.499999998259373,114.09414041240794,101.59414041414857,71.13263802280261,-129.86936629820678,2.303499421731158,1.8895544559032145,0.5035957908276599,False,0.0,0.2372457083975084,0.026092021478242577,-0.12115530275936283,-0.016368800584899243,0.12,approach,normal,approach guidance tracking,检测到侧偏后立即修正，并沿目标接地点下滑,,0.2374004044262325,0.02611352036903286,-0.12057366597729935,-0.016578809345972844,0.12,120.0,1858.1853277319672
1.8499999999999983,0.016666666666666666,223.81455702032608,1976.185442979674,0.289152250995169,steps,-12.500000004800444,114.0581957261585,101.55819572135806,71.11866455350956,-128.9347554191761,2.283552321107217,1.8962830477070352,0.5218443922912791,False,0.0,0.2374004044262325,0.02611352036903286,-0.12057366597729935,-0.016578809345972844,0.12,approach,normal,approach guidance tracking,检测到侧偏后立即修正，并沿目标接地点下滑,,0.23755569038790986,0.02613561421029103,-0.12001591331671654,-0.01679431695557178,0.12,120.0,1856.185442979674
