t,dt,distance_ft,distance_to_runway_ft,cross_track_ft,terrain_type,terrain_elev_ft,h_agl_ft,h_sl_ft,vc_kts,vs_fpm,roll_deg,pitch_deg,yaw_deg,wow,runway_heading_deg,cmd_throttle,cmd_elevator,cmd_aileron,cmd_rudder,cmd_flaps,phase,mode,note,suggestion,alerts,throttle,elevator,aileron,rudder,flaps,target_td_past_threshold_ft,distance_to_td_ft
0.0,0.016666666666666666,0.0,2200.0,0.0,rolling,0.0,120.0,120.0,72.00000000000111,-249.99881141522067,-0.13919080792375008,1.198185318768672,360.0,False,0.0,0.0,0.0,0.0,0.0,0.0,approach,normal,approach guidance tracking,检测到侧偏后立即修正，并沿目标接地点下滑,,0.22802147256355734,0.025688813774127846,0.006681158780340004,0.0005289250701102503,0.12,120.0,2080.0
0.016666666666666666,0.016666666666666666,2.0249289734051947,2197.975071026595,0.0,rolling,0.22719337185075497,119.70337807248184,119.9305714443326,72.0000704998379,-249.99732891590634,-0.1391908086685575,1.1981909082129325,359.9999999999844,False,0.0,0.22802147256355734,0.025688813774127846,0.006681158780340004,0.0005289250701102503,0.12,approach,normal,approach guidance tracking,检测到侧偏后立即修正，并沿目标接地点下滑,,0.2280549165469427,0.02555159446284907,0.006681158816359898,0.0005289250731741449,0.12,120.0,2077.975071026595
0.03333333333333333,0.016666666666666666,4.049859925417119,2195.950140074583,-5.504505880511188e-13,rolling,0.45436820706782816,119.40674695053639,119.86111515760422,72.00000085525588,-249.8727338911135,-0.13919077297794397,1.1981965003957278,359.9999999999622,False,0.0,0.2280549165469427,0.02555159446284907,0.006681158816359898,0.0005289250731741449,0.12,approach,normal,approach guidance tracking,检测到侧偏后立即修正，并沿目标接地点下滑,,0.22809004389968582,0.025410452801296078,0.006681157103597151,0.0005289249378837506,0.12,120.0,2075.950140074583
0.05,0.016666666666666666,6.074788914610206,2193.92521108539,-1.886396888169543e-12,rolling,0.6815052873233007,119.11023232873886,119.79173761606216,71.99982844956328,-249.67733207046984,-0.1346945909310014,1.1982156065098102,4.8506436624188315e-05,False,0.0,0.22809004389968582,0.025410452801296078,0.006681157103597151,0.0005289249378837506,0.12,approach,normal,approach guidance tracking,检测到侧偏后立即修正，并沿目标接地点下滑,,0.2281263834342452,0.025267146636976476,0.006464502173472256,0.0005111118489903289,0.12,120.0,2073.92521108539
0.06666666666666667,0.016666666666666666,8.099713040940163,2191.90028695906,1.7142928598710322e-06,rolling,0.908585541480153,118.81383259541455,119.7224181368947,71.99954940137249,-249.41269149500786,-0.12323193484053076,1.1982621264260707,0.00016194541961873948,False,0.0,0.2281263834342452,0.025267146636976476,0.006464502173472256,0.0005111118489903289,0.12,approach,normal,approach guidance tracking,检测到侧偏后立即修正，并沿目标接地点下滑,,0.22816398204473115,0.025121725598446165,0.005912326226888737,0.00046585045680687593,0.12,120.0,2071.90028695906
0.08333333333333333,0.016666666666666666,10.124629284927073,2189.875370715073,7.4376797063655504e-06,rolling,1.1355898755184177,118.51759172579732,119.65318160131574,71.99915996319088,-249.0823514904267,-0.1052206064751622,1.1983297877988786,0.0003222941842695247,False,0.0,0.22816398204473115,0.025121725598446165,0.005912326226888737,0.00046585045680687593,0.12,approach,normal,approach guidance tracking,检测到侧偏后立即修正，并沿目标接地点下滑,,0.22820287681399692,0.024974335100683476,0.005044984166441018,0.0003949964541618671,0.12,120.0,2069.875370715073
0.09999999999999999,0.016666666666666666,12.14953452633145,2187.8504654736685,1.882796339818714e-05,rolling,1.3624991888884321,118.22154635537827,119.5840455442667,71.99865628421722,-248.68967908383368,-0.08105461921304487,1.198414262280258,0.0005129581193928794,False,0.0,0.22820287681399692,0.024974335100683476,0.005044984166441018,0.0003949964541618671,0.12,approach,normal,approach guidance tracking,检测到侧偏后立即修正，并沿目标接地点下滑,,0.22824310738670334,0.024825109782912753,0.0038816674316987337,0.0003002943532552791,0.12,120.0,2067.8504654736685
0.11666666666666665,0.016666666666666666,14.174425539811665,2185.8255744601884,3.695642408174089e-05,rolling,1.5892943908640786,117.92573244299798,119.51502683386207,71.9980348075877,-248.23787231838173,-0.05110551212898737,1.1985133525582077,0.0007187196086211507,False,0.0,0.22824310738670334,0.024825109782912753,0.0038816674316987337,0.0003002943532552791,0.12,approach,normal,approach guidance tracking,检测到侧偏后立即修正，并沿目标接地点下滑,,0.2282847100030508,0.024674178345318917,0.002440467716518828,0.00018338319553675298,0.12,120.0,2065.8255744601884
0.13333333333333333,0.016666666666666666,16.199299001615362,2183.800700998385,6.235648451035325e-05,rolling,1.815956371106915,117.63018509166616,119.44614146277308,71.99728893473913,-247.7299706722417,-0.01572368837534074,1.198626775649608,0.0009256835038542686,False,0.0,0.2282847100030508,0.024674178345318917,0.002440467716518828,0.00018338319553675298,0.12,approach,normal,approach guidance tracking,检测到侧偏后立即修正，并沿目标接地点下滑,,0.22832775755861015,0.02452166431910679,0.0007384419199441041,4.580240678397043e-05,0.12,120.0,2063.800700998385
0.15,0.016666666666666666,18.224151402619338,2181.7758485973804,9.507045543799498e-05,rolling,2.0424660192900834,117.33493859971821,119.3774046190083,71.99641459804748,-247.1688607422502,0.024760333133482863,1.198756314245733,0.0011211964547013186,False,0.0,0.22832775755861015,0.02452166431910679,0.0007384419199441041,4.580240678397043e-05,0.12,approach,normal,approach guidance tracking,检测到侧偏后立即修正，并沿目标接地点下滑,,0.22837229272427234,0.024367685336400515,-0.0012083266033305186,-0.00011100228318319267,0.12,120.0,2061.7758485973804
0.16666666666666666,0.016666666666666666,20.24897911798196,2179.751020882018,0.00013469343770638868,rolling,2.2688042479928017,117.04002644164605,119.30883068963885,71.99540799424749,-246.55726732201825,0.07003473962790516,1.198905466533626,0.0012938141718403181,False,0.0,0.22837229272427234,0.024367685336400515,-0.0012083266033305186,-0.00011100228318319267,0.12,approach,normal,approach guidance tracking,检测到侧偏后立即修正，并沿目标接地点下滑,,0.22841835514800654,0.024212353216865046,-0.003384671139529839,-0.00028567391660135077,0.12,120.0,2059.751020882018
0.18333333333333332,0.016666666666666666,22.27377841330845,2177.7262215866917,0.0001804160728719492,rolling,2.494951943640627,116.7454814028395,119.24043334648013,71.99426507027124,-245.8977558986132,0.11980532145948582,1.1990791887782855,0.0014332643244209155,False,0.0,0.22841835514800654,0.024212353216865046,-0.003384671139529839,-0.00028567391660135077,0.12,approach,normal,approach guidance tracking,检测到侧偏后立即修正，并沿目标接地点下滑,,0.2284659876004855,0.024055774231005012,-0.005776288234731098,-0.0004769396024852318,0.12,120.0,2057.7262215866917
0.19999999999999998,0.016666666666666666,24.298545436545297,2175.7014545634547,0.0002310659874734955,rolling,2.720890012294519,116.45133555242373,119.17222556471825,71.99298015440087,-245.192738208861,0.17379443816732887,1.1992837046460612,0.0015304046112285916,False,0.0,0.2284659876004855,0.024055774231005012,-0.005776288234731098,-0.0004769396024852318,0.12,approach,normal,approach guidance tracking,检测到侧偏后立即修正，并沿目标接地点下滑,,0.2285152524062192,0.0238980494896827,-0.00836968754045369,-0.000683606000191752,0.12,120.0,2055.7014545634547
0.21666666666666665,0.016666666666666666,26.32327617151711,2173.676723828483,0.00028514775892790335,rolling,2.9465993600268896,116.15762029641074,119.10421965643764,71.99155031227042,-244.44446716656955,0.2317400478664687,1.1995262606646035,0.0015771661383729946,False,0.0,0.2285152524062192,0.0238980494896827,-0.00836968754045369,-0.000683606000191752,0.12,approach,normal,approach guidance tracking,检测到侧偏后立即修正，并沿目标接地点下滑,,0.22856617916240304,0.023739274077594116,-0.011152144437704438,-0.0009045548217271039,0.12,120.0,2053.676723828483
0.2333333333333333,0.016666666666666666,28.347966514151,2171.652033485849,0.00034088088754273614,rolling,3.1720608961922454,115.86436644893462,119.03642734512687,71.9899720807315,-243.6550445746966,0.2933947970352677,1.1998150491775472,0.0015665386057138655,False,0.0,0.22856617916240304,0.023739274077594116,-0.011152144437704438,-0.0009045548217271039,0.12,approach,normal,approach guidance tracking,检测到侧偏后立即修正，并沿目标接地点下滑,,0.22861880391898895,0.023579537908465852,-0.01411165627305979,-0.001138739188707268,0.12,120.0,2051.652033485849
0.24999999999999997,0.016666666666666666,30.372612256899178,2169.627387743101,0.0003962372461692889,rolling,3.3972555694042295,115.57160422607674,118.96885979548097,71.9882421225654,-242.82643126054342,0.35852516636010584,1.2001590615820885,0.0014925363963288112,False,0.0,0.22861880391898895,0.023579537908465852,-0.01411165627305979,-0.001138739188707268,0.12,approach,normal,approach guidance tracking,检测到侧偏后立即修正，并沿目标接地点下滑,,0.2286731613233985,0.023418925932540774,-0.017236900952995255,-0.0013851799153595037,0.12,120.0,2049.627387743101
0.26666666666666666,0.016666666666666666,32.397209091680686,2167.602790908319,0.00044897733434230686,rolling,3.6221643152052825,115.27936332054787,118.90152763575315,71.98635720144863,-241.96045019714515,0.42682609675616584,1.200567352303979,0.001349279429034541,False,0.0,0.2286731613233985,0.023418925932540774,-0.017236900952995255,-0.0013851799153595037,0.12,approach,normal,approach guidance tracking,检测到侧偏后立即修正，并沿目标接地点下滑,,0.2287292849074651,0.02325751829132479,-0.020513123284034523,-0.0016426273364432906,0.12,120.0,2047.602790908319
0.2833333333333333,0.016666666666666666,34.42175261266078,2165.578247387339,0.0004966540558915336,rolling,3.846768092043644,114.9876729029641,118.83444099500775,71.98431419614559,-241.05878847308165,0.4979230866005387,1.2010489595486318,0.0011311436842625137,False,0.0,0.2287292849074651,0.02325751829132479,-0.020513123284034523,-0.0016426273364432906,0.12,approach,normal,approach guidance tracking,检测到侧偏后立即修正，并沿目标接地点下滑,,0.22878720691686727,0.0230953903788996,-0.023922238259158193,-0.0019095715384018761,0.12,120.0,2045.5782473873392
0.3,0.016666666666666666,36.446238319484905,2163.553761680515,0.0005366218203667898,rolling,4.071047894355905,114.6965616795448,118.7676095739007,71.9821101161227,-240.12300799804,0.5714537199589415,1.2016134012412676,0.0008337348382992024,False,0.0,0.22878720691686727,0.0230953903788996,-0.023922238259158193,-0.0019095715384018761,0.12,approach,normal,approach guidance tracking,检测到侧偏后立即修正，并沿目标接地点下滑,,0.22884695811334216,0.022932613225755225,-0.02744676128077276,-0.002184566780238832,0.12,120.0,2043.553761680515
0.31666666666666665,0.016666666666666666,38.470661620580636,2161.529338379419,0.0005660800500631541,rolling,4.294984729672467,114.40605792990824,118.70104265958071,71.97974208326858,-239.15454530545017,0.6470678510872753,1.2022705757465861,0.0004538536217425893,False,0.0,0.22884695811334216,0.022932613225755225,-0.02744676128077276,-0.002184566780238832,0.12,approach,normal,approach guidance tracking,检测到侧偏后立即修正，并沿目标接地点下滑,,0.22890856798720913,0.022769253522501646,-0.03106981662701323,-0.002466231718507848,0.12,120.0,2041.5293383794192
0.3333333333333333,0.016666666666666666,40.49501783601403,2159.504982163986,0.0005821154615344681,rolling,4.518559612076117,114.11618952106373,118.63474913313985,71.97720732891052,-238.1547159070213,0.724427968803347,1.2030306608233319,359.9999894606303,False,0.0,0.22890856798720913,0.022769253522501646,-0.03106981662701323,-0.002466231718507848,0.12,approach,normal,approach guidance tracking,检测到侧偏后立即修正，并沿目标接地点下滑,,0.2289720647906266,0.02260537376948512,-0.03477515453646717,-0.002753250306368372,0.12,120.0,2039.504982163986
0.35,0.016666666666666666,42.51930220033129,2157.4806977996686,0.0005817431011001363,rolling,4.741753617802998,113.82698392631636,118.56873754411936,71.97450318934804,-237.12471826379638,0.8032095048459352,1.2039040195705228,359.9994396382499,False,0.0,0.2289720647906266,0.02260537376948512,-0.03477515453646717,-0.002753250306368372,0.12,approach,normal,approach guidance tracking,检测到侧偏后立即修正，并沿目标接地点下滑,,0.22903747558776008,0.02244103241795649,-0.03854716554844838,-0.0030443724352640974,0.12,120.0,2037.4806977996686
0.36666666666666664,0.016666666666666666,44.54350986533811,2155.456490134662,0.0005619460312398754,rolling,4.9645478231002285,113.53846829113469,118.50301611423492,71.97162710162443,-236.06563790511134,0.8831010888436472,1.204901113199791,359.9988045499371,False,0.0,0.22903747558776008,0.02244103241795649,-0.03854716554844838,-0.0030443724352640974,0.12,approach,normal,approach guidance tracking,检测到侧偏后立即修正，并沿目标接地点下滑,,0.22910482629364054,0.02227628404977694,-0.04237089222835845,-0.003338414332693894,0.12,120.0,2035.456490134662
0.3833333333333333,0.016666666666666666,46.56763590281785,2153.432364097182,0.000519713573296706,rolling,5.1869233369323355,113.25066945259842,118.43759278953075,71.96857659951937,-234.97845165497552,0.963804751883424,1.206032420502183,359.9980853971047,False,0.0,0.22910482629364054,0.02227628404977694,-0.04237089222835845,-0.003338414332693894,0.12,approach,normal,approach guidance tracking,检测到侧偏后立即修正，并沿目标接地点下滑,,0.2291741417187275,0.022111179527132385,-0.04623203837752568,-0.0036342587273010592,0.12,120.0,2033.432364097182
0.39999999999999997,0.016666666666666666,48.59167530718921,2151.4083246928108,0.0004520780208007195,rolling,5.408861323875619,112.96361392395454,118.37247524783015,71.965349309695,-233.8640319478634,1.0450360807269776,1.2073083638561497,359.9972843738732,False,0.0,0.2291741417187275,0.022111179527132385,-0.04623203837752568,-0.0036342587273010592,0.12,approach,normal,approach guidance tracking,检测到侧偏后立即修正，并沿目标接地点下滑,,0.2292454456179102,0.021945766119990384,-0.050116975829923416,-0.003930854792881096,0.12,120.0,2031.4083246928108
0.41666666666666663,0.016666666666666666,50.615622998102474,2149.3843770018975,0.0003561497469662148,rolling,5.6303429714116815,112.67732797947791,118.30767095088959,71.96194294802943,-232.7231512174671,1.1265243247692693,1.2087392416085219,359.9964046199593,False,0.0,0.2292454456179102,0.021945766119990384,-0.050116975829923416,-0.003930854792881096,0.12,approach,normal,approach guidance tracking,检测到侧偏后立即修正，并沿目标接地点下滑,,0.22931876071920695,0.021780087708107736,-0.05401274894060744,-0.0042272178832600095,0.12,120.0,2029.3843770018975
0.4333333333333333,0.016666666666666666,52.63947382297442,2147.3605261770253,0.0002291506395604268,rolling,5.851349496468584,112.3918376479301,118.24318714439869,71.95835531618107,-231.55648634433697,1.2080124578692917,1.2103351666483437,359.9954501719757,False,0.0,0.22931876071920695,0.021780087708107736,-0.05401274894060744,-0.0042272178832600095,0.12,approach,normal,approach guidance tracking,检测到侧偏后立即修正，并沿目标接地点下滑,,0.22939410876614622,0.021614184919100644,-0.05790707687253558,-0.004522429070178014,0.12,120.0,2027.3605261770253
0.44999999999999996,0.016666666666666666,54.663222559463776,2145.336777440536,6.844580607981386e-05,rolling,6.07186216831533,112.10716875299485,118.17903092131019,71.95458429822229,-230.36462314963183,1.289257197210358,1.2121060109822885,359.9944259134167,False,0.0,0.22939410876614622,0.021614184919100644,-0.05790707687253558,-0.004522429070178014,0.12,approach,normal,approach guidance tracking,检测到侧偏后立即修正，并沿目标接地点下滑,,0.22947151055086082,0.0214480953018271,-0.06178835378980703,-0.004815634496456023,0.12,120.0,2025.336777440536
0.4666666666666666,0.016666666666666666,56.68686391788437,2143.3131360821158,-0.00012842649801377394,rolling,6.291862305291022,111.82334689419714,118.11520919948816,71.95062785755792,-229.1480609237077,1.3700289813653292,1.2140613561108728,359.9933375236049,False,0.0,0.22947151055086082,0.0214480953018271,-0.06178835378980703,-0.004815634496456023,0.12,approach,normal,approach guidance tracking,检测到侧偏后立即修正，并沿目标接地点下滑,,0.22955098595447798,0.021281853458007545,-0.06564564706623814,-0.005106044556763848,0.12,120.0,2023.3131360821158
0.4833333333333333,0.016666666666666666,58.71039254355988,2141.28960745644,-0.00036372675551174315,rolling,6.511331248639711,111.54039753639829,118.051728785038,71.94648403389269,-227.9072169788603,1.4501119097522328,1.216210448997175,359.99219142586645,False,0.0,0.22955098595447798,0.021281853458007545,-0.06564564706623814,-0.005106044556763848,0.12,approach,normal,approach guidance tracking,检测到侧偏后立即修正，并沿目标接地点下滑,,0.22963255396737883,0.021115491252806828,-0.069468693618653,-0.005392932918299746,0.12,120.0,2021.28960745644
0.49999999999999994,0.016666666666666666,60.73380301911749,2139.2661969808823,-0.0006394879160431594,rolling,6.730250405028604,111.25834597100304,117.98859637603164,71.9421509404329,-226.64243121645433,1.5293036456679936,1.2185621634126658,359.99099473519664,False,0.0,0.22963255396737883,0.021115491252806828,-0.069468693618653,-0.005392932918299746,0.12,approach,normal,approach guidance tracking,检测到侧偏后立即修正，并沿目标接地点下滑,,0.22971623272973912,0.020949037933489442,-0.07324789447426457,-0.005675635393571882,0.12,120.0,2019.2661969808823
0.5166666666666666,0.016666666666666666,62.75708986672328,2137.242910133277,-0.0009574909856527949,rolling,6.948601230194784,110.9772173509393,117.92581858113408,71.93762232426374,-225.3540035253256,1.6074152850830894,1.2211249664390775,359.989755205669,False,0.0,0.22971623272973912,0.020949037933489442,-0.07324789447426457,-0.005675635393571882,0.12,approach,normal,approach guidance tracking,检测到侧偏后立即修正，并沿目标接地点下滑,,0.22980209280068406,0.020782522105155857,-0.07697430768121721,-0.005953548677364857,0.12,120.0,2017.2429101332768
0.5333333333333333,0.016666666666666666,64.7802474254757,2135.219752574524,-0.0013192424646335608,rolling,7.166365212591846,110.69703671818738,117.86340193077922,71.9328953027238,-224.0421405441845,1.6842711913846091,1.2239073791977024,359.98848114986276,False,0.0,0.22980209280068406,0.020782522105155857,-0.07697430768121721,-0.005953548677364857,0.12,approach,normal,approach guidance tracking,检测到侧偏后立即修正，并沿目标接地点下滑,,0.2298901643179959,0.020615968730887595,-0.08063963909225956,-0.006226128532738343,0.12,120.0,2015.2197525745241
0.55,0.016666666666666666,66.80326994602035,2133.1967300539795,-0.0017259546741447516,rolling,7.383523896284325,110.41782902186371,117.80135291814804,71.92796907788232,-222.70696401940174,1.75970880284742,1.2269177270831002,359.98718140068655,False,0.0,0.2298901643179959,0.020615968730887595,-0.08063963909225956,-0.006226128532738343,0.12,approach,normal,approach guidance tracking,检测到侧偏后立即修正，并沿目标接地点下滑,,0.22998045242023832,0.02044939963299148,-0.08423623255810388,-0.006492888506444331,0.12,120.0,2013.1967300539795
0.5666666666666668,0.016666666666666666,68.82615164918809,2131.173848350812,-0.0021785274467897645,rolling,7.6000588809475325,110.13961912939698,117.7396780103445,71.92284204225537,-221.3485375805559,1.8335784133794362,1.2301638105577013,359.985865276584,False,0.0,0.22998045242023832,0.02044939963299148,-0.08423623255810388,-0.006492888506444331,0.12,approach,normal,approach guidance tracking,检测到侧偏后立即修正，并沿目标接地点下滑,,0.23007297197559906,0.020282834850059363,-0.0877570588898395,-0.0067533985921547565,0.12,120.0,2011.173848350812
0.5833333333333335,0.016666666666666666,70.84888670347483,2129.151113296525,-0.002677531046866458,rolling,7.8159518316794045,109.86243183906788,117.67838367074728,71.9175126525112,-219.96686690751304,1.9057429267347976,1.2336528865261875,359.984542529767,False,0.0,0.23007297197559906,0.020282834850059363,-0.0877570588898395,-0.0067533985921547565,0.12,approach,normal,approach guidance tracking,检测到侧偏后立即修正，并沿目标接地点下滑,,0.23016773709537908,0.0201162925020951,-0.09119570324861906,-0.007007283537050328,0.12,120.0,2009.1511132965252
0.6000000000000002,0.016666666666666666,72.87146922710141,2127.1285307728986,-0.0032231909373364133,rolling,8.031184452835225,109.58629189872394,117.61747635155916,71.91197942670401,-218.56190436318013,1.9760775869956246,1.2373916569668275,359.98322329533585,False,0.0,0.23016773709537908,0.0201162925020951,-0.09119570324861906,-0.007007283537050328,0.12,approach,normal,approach guidance tracking,检测到侧偏后立即修正，并沿目标接地点下滑,,0.23026476116380096,0.019949788952763215,-0.09454635140269421,-0.007254221069683743,0.12,120.0,2007.1285307728986
0.6166666666666669,0.016666666666666666,74.89389328999914,2125.106106710001,-0.003815374358391489,rolling,8.24573855016962,109.31122399206623,117.55696254223585,71.90624094213342,-217.1335538994269,2.0444696873050177,1.2413862616757239,359.981918041386,False,0.0,0.23026476116380096,0.019949788952763215,-0.09454635140269421,-0.007254221069683743,0.12,approach,normal,approach guidance tracking,检测到侧偏后立即修正，并沿目标接地点下滑,,0.23036405686614347,0.019783338956934335,-0.09780377494887058,-0.007493940058190606,0.12,120.0,2005.1061067100009
0.6333333333333336,0.016666666666666666,76.91615291573665,2123.083847084263,-0.004453578682743607,rolling,8.459595955611787,109.037252798973,117.49684875458479,71.90029583337437,-215.68167585982627,2.110818258844873,1.245642274898451,359.98063752026275,False,0.0,0.23036405686614347,0.019783338956934335,-0.09780377494887058,-0.007493940058190606,0.12,approach,normal,approach guidance tracking,检测到侧偏后立即修正，并沿目标接地点下滑,,0.2304656362015075,0.019616955858215386,-0.100963315597017,-0.007726218608868971,0.12,120.0,2003.0838470842632
0.6500000000000004,0.016666666666666666,78.93824208339096,2121.061757916609,-0.005136921506999331,rolling,8.67273860249001,108.76440294635218,117.43714154884219,71.89414279047347,-214.2060916809634,2.175033742009558,1.250164705570513,359.9793927211115,False,0.0,0.2304656362015075,0.019616955858215386,-0.100963315597017,-0.007726218608868971,0.12,approach,normal,approach guidance tracking,检测到侧偏后立即修正，并沿目标接地点下滑,,0.23056951051328808,0.019450651704394164,-0.10402086861403156,-0.007950882114801529,0.12,120.0,2001.0617579166092
0.6666666666666671,0.016666666666666666,80.96015472936588,2119.039845270634,-0.005864132433172396,rolling,8.885148483013204,108.492699065561,117.37784754857421,71.88778055722808,-212.7065884817132,2.2370376416761912,1.2549580008939423,359.978194823849,False,0.0,0.23056951051328808,0.019450651704394164,-0.10402086861403156,-0.007950882114801529,0.12,approach,normal,approach guidance tracking,检测到侧偏后立即修正，并沿目标接地点下滑,,0.2306756904994727,0.0192844374360197,-0.10697286552088833,-0.00816780126367106,0.12,120.0,1999.039845270634
0.6833333333333338,0.016666666666666666,82.98188474915851,2117.0181152508417,-0.006633546489877225,rolling,9.096807638458953,108.22216576869036,117.31897340714931,71.88120792968603,-211.1829235304666,2.2967621684189856,1.2600260529814835,359.9770551546703,False,0.0,0.2306756904994727,0.0192844374360197,-0.10697286552088833,-0.00816780126367106,0.12,approach,normal,approach guidance tracking,检测到侧偏后立即修正，并沿目标接地点下滑,,0.2307841862348976,0.019118323012627246,-0.10981625613366311,-0.008376890013557138,0.12,120.0,1997.0181152508417
0.7000000000000005,0.016666666666666666,85.00342599907898,2114.996574000921,-0.007443099138630739,rolling,9.307698227856648,107.9528276767392,117.26052590459585,71.87442375460613,-209.6348285806144,2.354149867459094,1.265372208304066,359.9759851431845,False,0.0,0.2307841862348976,0.019118323012627246,-0.10981625613366311,-0.008376890013557138,0.12,approach,normal,approach guidance tracking,检测到侧偏后立即修正，并沿目标接地点下滑,,0.23089500718463288,0.018952317572119792,-0.11254849003639954,-0.00857810354497367,0.12,120.0,1994.996574000921
0.7166666666666672,0.016666666666666666,87.02477229792139,2112.9752277020784,-0.008290322807327482,rolling,9.517802439680167,107.68470941106432,117.20251185074449,71.86742692826456,-208.06201406524076,2.4091532370829207,1.2709992796829115,359.9749962812603,False,0.0,0.23089500718463288,0.018952317572119792,-0.11254849003639954,-0.00857810354497367,0.12,approach,normal,approach guidance tracking,检测到侧偏后立即修正，并沿目标接地点下滑,,0.23100816221982995,0.018786429559146847,-0.11516749757068305,-0.008771436197012317,0.12,120.0,1992.9752277020784
0.733333333333334,0.016666666666666666,89.04591742859449,2110.9540825714057,-0.009172344890016504,rolling,9.727102576884333,107.4178355753991,117.14493815228343,71.86021639515798,-206.4641731418578,2.4617343382013783,1.276909560573406,359.9741000836466,False,0.0,0.23100816221982995,0.018786429559146847,-0.11516749757068305,-0.008771436197012317,0.12,approach,normal,approach guidance tracking,检测到侧偏后立即修正，并沿目标接地点下滑,,0.2311236596365054,0.018620666841914844,-0.11767167042360716,-0.008956919394974073,0.12,120.0,1990.9540825714057
0.7500000000000007,0.016666666666666666,91.06685513970884,2108.933144860291,-0.010085887149770066,rolling,9.935581011115735,107.15223080164272,117.08781181275845,71.85289920642842,-204.9391401948104,2.5118643966601897,1.283104841394265,359.97330805041815,False,0.0,0.2311236596365054,0.018620666841914844,-0.11767167042360716,-0.008956919394974073,0.12,approach,normal,approach guidance tracking,检测到侧偏后立即修正，并沿目标接地点下滑,,0.23124021044618465,0.018458159470121333,-0.12005984189259591,-0.009134619576431266,0.12,120.0,1988.9331448602911
0.7666666666666674,0.016666666666666666,93.08758218609505,2106.912417813905,-0.011027267875335037,rolling,10.143220519587505,106.88786713226129,117.0310876518488,71.8454675804871,-203.46920417862344,2.5595100229587247,1.2896010623368872,359.97263287369907,False,0.0,0.23124021044618465,0.018458159470121333,-0.12005984189259591,-0.009134619576431266,0.12,approach,normal,approach guidance tracking,检测到侧偏后立即修正，并沿目标接地点下滑,,0.2313579130909023,0.018298321855160785,-0.12233064627373709,-0.009304603924853862,0.12,120.0,1986.912417813905
0.7833333333333341,0.016666666666666666,95.10809508792453,2104.8919049120755,-0.011992358675117599,rolling,10.350003899144664,106.62476231802748,116.97476621717215,71.83791238379534,-202.0418928640382,2.6046448249101966,1.2964042009653207,359.97208704506147,False,0.0,0.2313579130909023,0.018298321855160785,-0.12233064627373709,-0.009304603924853862,0.12,approach,normal,approach guidance tracking,检测到侧偏后立即修正，并沿目标接地点下滑,,0.23147687401080988,0.018140769135668568,-0.1244830524127111,-0.009466963651905694,0.12,120.0,1984.8919049120755
0.8000000000000008,0.016666666666666666,97.12839010023332,2102.8716098997666,-0.012976591752836036,rolling,10.55591405457112,106.36292272159604,116.91883677616715,71.83023340354775,-200.653404015189,2.647252182676524,1.3035148111418822,359.97168281089176,False,0.0,0.23147687401080988,0.018140769135668568,-0.1244830524127111,-0.009466963651905694,0.12,approach,normal,approach guidance tracking,检测到侧偏后立即修正，并沿目标接地点下滑,,0.2315970946496221,0.01798538414129838,-0.12651649610026924,-0.009621823865794415,0.12,120.0,1982.8716098997666
0.8166666666666675,0.016666666666666666,99.14846346788735,2100.8515365321127,-0.0139749689059485,rolling,10.760933952800528,106.10235411820601,116.86328807100654,71.82243050225556,-199.29980921396873,2.6873246163933926,1.3109308602509429,359.97143223270916,False,0.0,0.2315970946496221,0.01798538414129838,-0.12651649610026924,-0.009621823865794415,0.12,approach,normal,approach guidance tracking,检测到侧偏后立即修正，并沿目标接地点下滑,,0.23171857565308487,0.017832045216245797,-0.1284308507173486,-0.009769342064026377,0.12,120.0,1980.8515365321127
0.8333333333333343,0.016666666666666666,101.1683114296079,2098.831688570392,-0.014982068288011836,rolling,10.965046645810643,105.84306432891842,116.80811097472906,71.81450353851956,-197.97740556075246,2.7248632818397622,1.3186479497099977,359.971347151707,False,0.0,0.23171857565308487,0.017832045216245797,-0.1284308507173486,-0.009769342064026377,0.12,approach,normal,approach guidance tracking,检测到侧偏后立即修正，并沿目标接地点下滑,,0.23184131734567925,0.017680639383927884,-0.130226402382023,-0.009909705678307984,0.12,120.0,1978.831688570392
0.850000000000001,0.016666666666666666,103.1879302196494,2096.8120697803506,-0.015992052424374927,rolling,11.168235283705714,105.58506201916623,116.75329730287194,71.80645238094817,-196.6827068453802,2.7598774633380274,1.3266595789562194,359.97143915916126,False,0.0,0.23184131734567925,0.017680639383927884,-0.130226402382023,-0.009909705678307984,0.12,approach,normal,approach guidance tracking,检测到侧偏后立即修正，并沿目标接地点下滑,,0.2319653197798501,0.017531061198042246,-0.13190382505889495,-0.010043129695679089,0.12,120.0,1976.8120697803506
0.8666666666666677,0.016666666666666666,105.20731606971455,2094.7926839302854,-0.016998677274534787,rolling,11.370483111445541,105.32835672437704,116.69883983582258,71.79827691629328,-195.41244515540572,2.7923840702473712,1.3349573939227959,359.97171957023824,False,0.0,0.2319653197798501,0.017531061198042246,-0.13190382505889495,-0.010043129695679089,0.12,approach,normal,approach guidance tracking,检测到侧偏后立即修正，并沿目标接地点下滑,,0.23209058263374577,0.017383212812034955,-0.13346415589467275,-0.01016985434323901,0.12,120.0,1974.7926839302854
0.8833333333333344,0.016666666666666666,107.2264652109548,2092.7735347890452,-0.01799530222028166,rolling,11.571773452492312,105.07295874339168,116.64473219588399,71.78997705711161,-194.16357057039974,2.822407138446312,1.3435314223013544,359.9721994010299,False,0.0,0.23209058263374577,0.017383212812034955,-0.13346415589467275,-0.01016985434323901,0.12,approach,normal,approach guidance tracking,检测到侧偏后立即修正，并沿目标接地点下滑,,0.23221710513844704,0.017237003892167972,-0.1349087708445625,-0.010290142839324373,0.12,120.0,1972.7735347890452
0.9000000000000011,0.016666666666666666,109.24537387605164,2090.7546261239486,-0.018974900864898198,rolling,11.772089751328513,104.81887909594627,116.59096884727478,71.78155274853873,-192.93324954022376,2.849977338236563,1.3523702953927694,359.9728893485456,False,0.0,0.23221710513844704,0.017237003892167972,-0.1349087708445625,-0.010290142839324373,0.12,approach,normal,approach guidance tracking,检测到侧偏后立即修正，并沿目标接地点下滑,,0.23234488600431344,0.017092351534705563,-0.1362393606540716,-0.010404279212618146,0.12,120.0,1970.7546261239486
0.9166666666666679,0.016666666666666666,111.26403830136151,2088.7359616986387,-0.019930072538290183,rolling,11.971415517856082,104.566129500042,116.53754501789808,71.77300397435424,-191.7188620790465,2.8751314899656126,1.3614614565318668,359.97379977339926,False,0.0,0.23234488600431344,0.017092351534705563,-0.1362393606540716,-0.010404279212618146,0.12,approach,normal,approach guidance tracking,检测到侧偏后立即修正，并沿目标接地点下滑,,0.23247392335225345,0.016949180159602457,-0.1374579072545049,-0.010512566190320002,0.12,120.0,1968.7359616986387
0.9333333333333346,0.016666666666666666,113.2824547291115,2086.7175452708884,-0.02085305441214017,rolling,12.169734382996962,104.31472220831115,116.48445659130812,71.76433076244666,-190.51799791399318,2.897912088542932,1.3707913561551326,359.9749406849446,False,0.0,0.23247392335225345,0.016949180159602457,-0.1374579072545049,-0.010512566190320002,0.12,approach,normal,approach guidance tracking,检测到侧偏后立即修正，并沿目标接地点下滑,,0.23260421467757952,0.016807421269281555,-0.13856666062472536,-0.010615323156220198,0.12,120.0,1966.7175452708884
0.9500000000000013,0.016666666666666666,115.30061940963594,2084.699380590364,-0.02173573413794768,rolling,12.367030079069101,104.0646700686193,116.43170014768839,71.75553318936923,-189.3284517185959,2.9183668379074237,1.38034563365745,359.97632172861995,False,0.0,0.23260421467757952,0.016807421269281555,-0.13856666062472536,-0.010615323156220198,0.12,approach,normal,approach guidance tracking,检测到侧偏后立即修正，并沿目标接地点下滑,,0.23273575678440914,0.016667013339694205,-0.13956811616624692,-0.01071288417920952,0.12,120.0,1964.699380590364
0.966666666666668,0.016666666666666666,117.31852860363396,2082.681471396366,-0.02256966292924411,rolling,12.563286426703792,103.81598639186157,116.37927281856537,71.74661138449748,-188.14821755321532,2.93654819639236,1.390109286250427,359.97795217528335,False,0.0,0.23273575678440914,0.016667013339694205,-0.13956811616624692,-0.01071288417920952,0.12,approach,normal,approach guidance tracking,检测到侧偏后立即修正，并沿目标接地点下滑,,0.23286854575954907,0.01652790154721836,-0.14046499263366918,-0.010805596112611955,0.12,120.0,1962.6814713963659
0.9833333333333347,0.016666666666666666,119.3361785844428,2080.6638214155573,-0.02334606901703303,rolling,12.758487351198584,103.56868491698346,116.32717226818204,71.73756553342602,-186.9754826259585,2.9525129338280807,1.4000668250926211,359.9798409123305,False,0.0,0.23286854575954907,0.01652790154721836,-0.14046499263366918,-0.010805596112611955,0.12,approach,normal,approach guidance tracking,检测到侧偏后立即修正，并沿目标接地点下滑,,0.23300257693800905,0.01639003754391271,-0.14126021065753672,-0.010893816764486778,0.12,120.0,1960.6638214155573
1.0000000000000013,0.016666666666666666,121.3535656403103,2078.64643435969,-0.024055871414855903,rolling,12.952616902140955,103.32277973920287,116.27539664134383,71.72839588080024,-185.80862048038745,2.966321701122303,1.410202419011672,359.9819964364072,False,0.0,0.23300257693800905,0.01639003754391271,-0.14126021065753672,-0.010893816764486778,0.12,approach,normal,approach guidance tracking,检测到侧偏后立即修正，并沿目标接地点下滑,,0.23313784488191958,0.016253379188000523,-0.14195687189219566,-0.010977913138957907,0.12,120.0,1958.64643435969
1.016666666666668,0.016666666666666666,123.37068607665563,2076.6293139233444,-0.024689693936533724,rolling,13.14565922724305,103.07828528774681,116.22394451498985,71.71910273259988,-184.64618370827898,2.978038612962737,1.4205000261803198,359.98442684754457,False,0.0,0.23313784488191958,0.016253379188000523,-0.14195687189219566,-0.010977913138957907,0.12,approach,normal,approach guidance tracking,检测到侧偏后立即修正，并沿目标接地点下滑,,0.23327434335711517,0.016117890294871016,-0.14255823881688617,-0.011058259748490399,0.12,120.0,1956.6293139233444
1.0333333333333345,0.016666666666666666,125.3875362183073,2074.612463781693,-0.02523787941574165,rolling,13.337598588694544,102.83521626106956,116.17281484976411,71.70968645794143,-183.48689627842433,2.98773084419688,1.4309435141438196,359.98713984456066,False,0.0,0.23327434335711517,0.016117890294871016,-0.14255823881688617,-0.011058259748490399,0.12,approach,normal,approach guidance tracking,检测到侧偏后立即修正，并沿目标接地点下滑,,0.23341206532314573,0.01598354034523639,-0.14306771521426287,-0.011135236996942284,0.12,120.0,1954.612463781693
1.0500000000000012,0.016666666666666666,127.40411241170895,2072.595887588291,-0.025690504082079416,rolling,13.528419320644513,102.59358759486518,116.1220069155097,71.70014749037539,-182.32964556533767,2.995468240358844,1.4415167686251036,359.9901427215897,False,0.0,0.23341206532314573,0.01598354034523639,-0.14306771521426287,-0.011135236996942284,0.12,approach,normal,approach guidance tracking,检测到侧偏后立即修正，并沿目标接地点下滑,,0.23355100292344586,0.01585030420735801,-0.14348882734670015,-0.01120922963312669,0.12,120.0,1952.5958875882911
1.0666666666666678,0.016666666666666666,129.4204110270829,2070.579588972917,-0.02603739205325197,rolling,13.718105930590474,102.35341435322778,116.07152028381824,71.69048632869493,-181.17347415487257,3.001322942733271,1.4522037915577575,359.9934423656169,False,0.0,0.23355100292344586,0.01585030420735801,-0.14348882734670015,-0.01120922963312669,0.12,approach,normal,approach guidance tracking,检测到侧偏后立即修正，并沿目标接地点下滑,,0.23369114749520145,0.015718161796857873,-0.14382520584720118,-0.011280625274586469,0.12,120.0,1950.579588972917
1.0833333333333344,0.016666666666666666,131.43642846054163,2068.5635715394583,-0.026268129907280547,rolling,13.906642997988811,102.114711777887,116.0213547758758,71.68070353734024,-180.0175714973297,3.00536902827104,1.4629887888153272,359.9970452549084,False,0.0,0.23369114749520145,0.015718161796857873,-0.14382520584720118,-0.011280625274586469,0.12,approach,normal,approach guidance tracking,检测到侧偏后立即修正，并沿目标接地点下滑,,0.2338324895556161,0.015587097845507781,-0.14408056833827237,-0.011349813001148887,0.12,120.0,1948.5635715394583
1.100000000000001,0.016666666666666666,133.45216113613947,2066.5478388638603,-0.02637208130260403,rolling,14.094015236396647,101.87749516646161,115.97151040285826,71.67079974647613,-178.86126547219573,3.007682164600884,1.4738562481192041,0.0009574582442738053,False,0.0,0.2338324895556161,0.015587097845507781,-0.14408056833827237,-0.011349813001148887,0.12,approach,normal,approach guidance tracking,检测到侧偏后立即修正，并沿目标接地点下滑,,0.23397501882287375,0.01545710154411434,-0.144258702789051,-0.011417182017844862,0.12,120.0,1946.5478388638603
1.1166666666666676,0.016666666666666666,135.46760550785916,2064.532394492141,-0.026338401617191115,rolling,14.28020746076512,101.64177989771557,115.92198735848069,71.66077565159331,-177.70401392283125,3.008339280314837,1.4847910076169448,0.005184634872389025,False,0.0,0.23397501882287375,0.01545710154411434,-0.144258702789051,-0.011417182017844862,0.12,approach,normal,approach guidance tracking,检测到侧偏后立即修正，并沿目标接地点下滑,,0.23411872421635968,0.015328166290339933,-0.14436345161794453,-0.011483120386665024,0.12,120.0,1944.532394492141
1.1333333333333342,0.016666666666666666,137.48275806152367,2062.517241938476,-0.026156052580709833,rolling,14.465204626686914,101.40758134388174,115.87278597056866,71.65063201288727,-176.54539621381153,3.007418250643399,1.4957783156290363,0.009732035114167866,False,0.0,0.23411872421635968,0.015328166290339933,-0.14436345161794453,-0.011483120386665024,0.12,approach,normal,approach guidance tracking,检测到侧偏后立即修正，并沿目标接地点下滑,,0.2342635938798765,0.01520028935595005,-0.14439869654526857,-0.011548013826576723,0.12,120.0,1942.5172419384762
1.1500000000000008,0.016666666666666666,139.49761531663052,2060.5023846833697,-0.025813816876281204,rolling,14.648991784607219,101.17491487919803,115.82390666380525,71.64036965427206,-175.38510485812859,3.004997598578576,1.5068038820645386,0.014604501563716605,False,0.0,0.2342635938798765,0.01520028935595005,-0.14439869654526857,-0.011548013826576723,0.12,approach,normal,approach guidance tracking,检测到侧偏后立即修正，并沿目标接地点下滑,,0.23440961519192582,0.015073471625605156,-0.14436834419778652,-0.011612244581178056,0.12,120.0,1940.5023846833697
1.1666666666666674,0.016666666666666666,141.5121738281023,2058.4878261718977,-0.025300312690415785,rolling,14.831554128882901,100.94379580104588,115.77534992992878,71.62998946217769,-174.2229372565211,3.0011562114489565,1.517853922005577,0.01980647083145982,False,0.0,0.23440961519192582,0.015073471625605156,-0.14436834419778652,-0.011612244581178056,0.12,approach,normal,approach guidance tracking,检测到侧偏后立即修正，并沿目标接地点下滑,,0.23455677479431772,0.014947717276325838,-0.14427631246460354,-0.011676190353287515,0.12,120.0,1938.4878261718977
1.183333333333334,0.016666666666666666,143.52643018795104,2056.473569812049,-0.02460400819150006,rolling,15.012876965076101,100.71423932912909,115.72711629420519,71.61949238410031,-173.05878900565048,2.995973072900975,1.5289151919576323,0.02534197579175248,False,0.0,0.23455677479431772,0.014947717276325838,-0.14427631246460354,-0.011676190353287515,0.12,approach,normal,approach guidance tracking,检测到侧偏后立即修正，并沿目标接地点下滑,,0.2347050586097005,0.01482303356336543,-0.14412651760160908,-0.01174022330570849,0.12,120.0,1936.473569812049
1.2000000000000006,0.016666666666666666,145.54038102685297,2054.459618973147,-0.0237132359186575,rolling,15.192945713224585,100.48626060965401,115.6792063228786,71.60887942656588,-171.89264561293393,2.989525269399216,1.5399750082315853,0.03121462934177425,False,0.0,0.2347050586097005,0.01482303356336543,-0.14412651760160908,-0.01174022330570849,0.12,approach,normal,approach guidance tracking,检测到侧偏后立即修正，并沿目标接地点下滑,,0.23485445186522988,0.014699430558707389,-0.14392277819377866,-0.011804702227924978,0.12,120.0,1934.459618973147
1.2166666666666672,0.016666666666666666,147.55402301563197,2052.445976984368,-0.022616207730339812,rolling,15.3717459372773,100.25987462628939,115.63162056356668,71.5981516531611,-170.7245729812561,2.981886063078978,1.5510212598430313,0.037427612003367895,False,0.0,0.23485445186522988,0.014699430558707389,-0.14392277819377866,-0.011804702227924978,0.12,approach,normal,approach guidance tracking,检测到侧偏后立即修正，并沿目标接地点下滑,,0.23500493913221035,0.014576920783044383,-0.1436687223661035,-0.011869965012020294,0.12,120.0,1932.445976984368
1.2333333333333338,0.016666666666666666,149.56735286665628,2050.432647133344,-0.021301030176597055,rolling,15.549263328740839,100.03509619789338,115.58435952663422,71.58731018288618,-169.55471014048868,2.973125104016146,1.5620424292969302,0.043983685732996075,False,0.0,0.23500493913221035,0.014576920783044383,-0.1436687223661035,-0.011869965012020294,0.12,approach,normal,approach guidance tracking,检测到侧偏后立即修正，并沿目标接地点下滑,,0.2351565043462584,0.014455518972124083,-0.1433677981373935,-0.011936329651079698,0.12,120.0,1930.4326471333438
1.2500000000000004,0.016666666666666666,151.58036733514913,2048.4196326648507,-0.0197557193733496,rolling,15.725483673973232,99.81194000749454,115.53742368146777,71.57635618800174,-168.3832618294769,2.963308630439464,1.5730276073702063,0.05088520692005554,False,0.0,0.2351565043462584,0.014455518972124083,-0.1433677981373935,-0.011936329651079698,0.12,approach,normal,approach guidance tracking,检测到侧偏后立即修正，并沿目标接地点下滑,,0.23530913082791105,0.014335241860869857,-0.14302328318368074,-0.012004095180097447,0.12,120.0,1928.4196326648507
1.266666666666667,0.016666666666666666,153.5930632204032,2046.406936779597,-0.01796821540717239,rolling,15.900392939219856,99.59042049490414,115.490813434124,71.56529089181028,-167.2104913728237,2.9524996575109763,1.5839665025592975,0.05813413863662645,False,0.0,0.23530913082791105,0.014335241860869857,-0.14302328318368074,-0.012004095180097447,0.12,approach,normal,approach guidance tracking,检测到侧偏后立即修正，并沿目标接地点下滑,,0.23546280132856556,0.014216107878732849,-0.14263829404221334,-0.012073542562683934,0.12,120.0,1926.406936779597
1.2833333333333337,0.016666666666666666,155.60543736690053,2044.3945626330994,-0.015926396296886587,rolling,16.073977175765034,99.37055194038868,115.44452911615372,71.55411556634162,-166.0367138771436,2.940758155342229,1.5948494456688191,0.06573206220170799,False,0.0,0.23546280132856556,0.014216107878732849,-0.14263829404221334,-0.012073542562683934,0.12,approach,normal,approach guidance tracking,检测到侧偏后立即修正，并沿目标接地点下滑,,0.2356174980431834,0.01409813699281975,-0.14221579478904744,-0.012144935527029202,0.12,120.0,1924.3945626330994
1.3000000000000003,0.016666666666666666,157.61748666534,2042.38251333466,-0.013618091536044933,rolling,16.246222598427057,99.15234835264731,115.39857095107436,71.54283152997267,-164.86228975942342,2.9281412168691268,1.6056673900008225,0.07368018812066163,False,0.0,0.2356174980431834,0.01409813699281975,-0.14221579478904744,-0.012144935527029202,0.12,approach,normal,approach guidance tracking,检测到侧偏后立即修正，并沿目标接地点下滑,,0.23577320265900717,0.013981350420731672,-0.1417586052210701,-0.01221852135437656,0.12,120.0,1922.38251333466
1.3166666666666669,0.016666666666666666,159.6292080535735,2040.3707919464264,-0.011031095238270405,rolling,16.417115546310292,98.93582350805963,115.35293905436993,71.53144014492348,-163.6876186166217,2.914703216167211,1.616411907585485,0.08197936645794733,False,0.0,0.23577320265900717,0.013981350420731672,-0.1417586052210701,-0.01221852135437656,0.12,approach,normal,approach guidance tracking,检测到侧偏后立即修正，并沿目标接地点下滑,,0.23592989637853445,0.013865770463232601,-0.14126940857127576,-0.01229453162306634,0.12,120.0,1920.3707919464264
1.3333333333333335,0.016666666666666666,161.64059851745162,2038.3594014825485,-0.008153178905378006,rolling,16.58664246318128,98.72099098521088,115.30763344839215,71.51994281476871,-162.51313344254595,2.900495957751106,1.6270751818750855,0.09063009669835655,False,0.0,0.23592989637853445,0.013865770463232601,-0.14126940857127576,-0.01229453162306634,0.12,approach,normal,approach guidance tracking,检测到侧偏后立即修正，并沿目标接地点下滑,,0.2360875599431575,0.013751420344602448,-0.14075075878425486,-0.012373182911024171,0.12,120.0,1918.3594014825485
1.35,0.016666666666666666,163.65165509158265,2036.3483449084174,-0.00497210383627558,rolling,16.754789959610452,98.50786406177188,115.26265402138233,71.50834098187265,-161.33929519492682,2.885568817366767,1.6376499973036165,0.09963253714893432,False,0.0,0.2360875599431575,0.013751420344602448,-0.14075075878425486,-0.012373182911024171,0.12,approach,normal,approach guidance tracking,检测到侧偏后立即修正，并沿目标接地点下滑,,0.23624617368249798,0.013638323965080853,-0.14020508737712425,-0.012454677459391453,0.12,120.0,1916.3483449084174
1.3666666666666667,0.016666666666666666,165.66237486000625,2034.3376251399936,-0.0014756331928195247,rolling,16.921544780265595,98.29645572485397,115.21800050511956,71.49663612488351,-160.1665877129137,2.869968874752817,1.648129726093644,0.1089865139306252,False,0.0,0.23624617368249798,0.013638323965080853,-0.14020508737712425,-0.012454677459391453,0.12,approach,normal,approach guidance tracking,检测到侧偏后立即修正，并沿目标接地点下滑,,0.23640571754260464,0.013526505746192767,-0.1396347099095309,-0.012539203799827262,0.12,120.0,1914.3376251399936
1.3833333333333333,0.016666666666666666,167.67275495678686,2032.3272450432132,0.002348456262915681,rolling,17.08689380064108,98.08677873388432,115.1736725345254,71.48482975609335,-158.99551298291777,2.853741038817238,1.6585083126713878,0.11869152960549251,False,0.0,0.23640571754260464,0.013526505746192767,-0.1396347099095309,-0.012539203799827262,0.12,approach,normal,approach guidance tracking,检测到侧偏后立即修正，并沿目标接地点下滑,,0.23656617110631142,0.013415990525036867,-0.13904183208487236,-0.012626937347850808,0.12,120.0,1912.3272450432132
1.4,0.016666666666666666,169.68279256652608,2030.3172074334739,0.00651236274708482,rolling,17.25082403359889,97.87884553955914,115.12966957315803,71.47292341896218,-157.8265867486875,2.8369281656481173,1.6687802560302374,0.12874677148214705,False,0.0,0.23656617110631142,0.013415990525036867,-0.13904183208487236,-0.012626937347850808,0.12,approach,normal,approach guidance tracking,检测到侧偏后立即修正，并沿目标接地点下滑,,0.23672751363753164,0.013306803355916554,-0.13842855550350713,-0.012718040964442135,0.12,120.0,1910.3172074334739
1.4166666666666665,0.016666666666666666,171.69248492480173,2028.3075150751984,0.011028248336866515,rolling,17.413322622827287,97.67266833881379,115.08599096164107,71.46091868554495,-156.66033445920726,2.819571169751523,1.678940590361577,0.13915111963882307,False,0.0,0.23672751363753164,0.013306803355916554,-0.13842855550350713,-0.012718040964442135,0.12,approach,normal,approach guidance tracking,检测到侧偏后立即修正，并沿目标接地点下滑,,0.23688972410223547,0.013198969420710287,-0.13779688308744892,-0.012812665487975,0.12,120.0,1908.3075150751984
1.4333333333333331,0.016666666666666666,173.70182931853367,2026.2981706814662,0.015908228147595085,rolling,17.574376862464074,97.46825901049601,115.04263587296009,71.44881715402836,-155.49728754693385,2.8017091288859928,1.6889848642508294,0.14990315470039994,False,0.0,0.23688972410223547,0.013198969420710287,-0.13779688308744892,-0.012812665487975,0.12,approach,normal,approach guidance tracking,检测到侧偏后立即修正，并沿目标接地点下滑,,0.2370527812095835,0.013092513863882042,-0.13714872419485902,-0.012910950238420366,0.12,120.0,1906.2981706814662
1.4499999999999997,0.016666666666666666,175.7108230862818,2024.2891769137182,0.02116435979549268,rolling,17.733974193826068,97.26562914843882,114.99960334226489,71.43662044626873,-154.33798002695224,2.7833793828412365,1.6989091187162346,0.16100116540260526,False,0.0,0.2370527812095835,0.013092513863882042,-0.13714872419485902,-0.012910950238420366,0.12,approach,normal,approach guidance tracking,检测到侧偏后立即修正，并沿目标接地点下滑,,0.23721666343551634,0.012987461707871704,-0.13648589944155476,-0.01301302349563127,0.12,120.0,1904.2891769137182
1.4666666666666663,0.016666666666666666,177.71946361847912,2022.280536381521,0.026808633138412828,rolling,17.89210217597303,97.06479009089651,114.95689226686954,71.42433020536504,-153.1829454068061,2.7646176264884437,1.7087098643467045,0.17244315597364615,False,0.0,0.23721666343551634,0.012987461707871704,-0.13648589944155476,-0.01301302349563127,0.12,approach,normal,approach guidance tracking,检测到侧偏后立即修正，并沿目标接地点下滑,,0.23738134904657762,0.012883837775786985,-0.1358101452457343,-0.01311900295339919,0.12,120.0,1902.280536381521
1.483333333333333,0.016666666666666666,179.72774835760242,2020.2722516423976,0.032852960288057016,rolling,18.04874852168466,96.8657528547654,114.91450137645006,71.41194809336885,-152.0327138955122,2.7454579974108424,1.7183840577757712,0.18422685336068378,False,0.0,0.23738134904657762,0.012883837775786985,-0.1358101452457343,-0.01311900295339919,0.12,approach,normal,approach guidance tracking,检测到侧偏后立即修正，并沿目标接地点下滑,,0.2375468161392333,0.012781666555076714,-0.13512311811117572,-0.013228996150859516,0.12,120.0,1900.2722516423976
1.4999999999999996,0.016666666666666666,181.73567479828702,2018.264325201713,0.03930916588808384,rolling,18.203901104001194,96.66852815884552,114.87242926284671,71.39947578896134,-150.88780989946181,2.725933158405746,1.7279290777082892,0.19634971432578505,False,0.0,0.2375468161392333,0.012781666555076714,-0.13512311811117572,-0.013228996150859516,0.12,approach,normal,approach guidance tracking,检测到侧偏后立即修正，并沿目标接地点下滑,,0.23771304266355942,0.01268097213448667,-0.13442639866328818,-0.013343100882716693,0.12,120.0,1898.264325201713
1.5166666666666662,0.016666666666666666,183.743240487386,2016.256759512614,0.046188977653369094,rolling,18.357547913705563,96.47312646263316,114.83067437633872,71.38691498524013,-149.74874979243768,2.706074375133269,1.7373427006982587,0.208808932433434,False,0.0,0.23771304266355942,0.01268097213448667,-0.13442639866328818,-0.013343100882716693,0.12,approach,normal,approach guidance tracking,检测到侧偏后立即修正，并沿目标接地点下滑,,0.2378800064428167,0.012581778160939389,-0.13372149545158282,-0.0134614055896613,0.12,120.0,1896.256759512614
1.5333333333333328,0.016666666666666666,185.75044302397876,2014.2495569760213,0.05350401716644815,rolling,18.509677105111557,96.27955792798332,114.78923503309488,71.37426738758184,-148.6160399462286,2.685911589171826,1.746623076857183,0.22160144494917525,False,0.0,0.2378800064428167,0.012581778160939389,-0.13372149545158282,-0.0134614055896613,0.12,approach,normal,approach guidance tracking,检测到侧偏后立即修正，并沿目标接地点下滑,,0.2380476852060006,0.012484107749196144,-0.13300984853136832,-0.013583989730257016,0.12,120.0,1894.2495569760213
1.5499999999999994,0.016666666666666666,187.75728005933226,2012.2427199406677,0.06126579092784448,rolling,18.660276953545672,96.08783242810024,114.74810938164592,71.36153471160448,-147.49017500811524,2.6654734867266945,1.7557687056547318,0.23472393966666596,False,0.0,0.2380476852060006,0.012484107749196144,-0.13300984853136832,-0.013583989730257016,0.12,approach,normal,approach guidance tracking,检测到侧偏后立即修正，并沿目标接地点下滑,,0.23821605661067483,0.012387983433469564,-0.13229283283677498,-0.013710924135489272,0.12,120.0,1892.2427199406677
1.566666666666666,0.016666666666666666,189.76374929681913,2010.2362507031808,0.06948568165758504,rolling,18.809335914218213,95.8979595557215,114.70729546993971,71.34871868111382,-146.371636411169,2.644787563224841,1.7647784119570047,0.2481728616782459,False,0.0,0.23821605661067483,0.012387983433469564,-0.13229283283677498,-0.013710924135489272,0.12,approach,normal,approach guidance tracking,检测到侧偏后立即修正，并沿目标接地点下滑,,0.2383850982661423,0.012293427125900504,-0.13157176135654886,-0.013842271347085669,0.12,120.0,1890.2362507031808
1.5833333333333326,0.016666666666666666,191.7698484917929,2008.2301515082072,0.07817493984570834,rolling,18.95684256008114,95.70994862193022,114.66679118201137,71.33582102626845,-145.26089110342932,2.623880184017196,1.773651322430625,0.2619444201020803,False,0.0,0.2383850982661423,0.012293427125900504,-0.13157176135654886,-0.013842271347085669,0.12,approach,normal,approach guidance tracking,检测到侧偏后立即修正，并沿目标接地点下滑,,0.23855478775567981,0.012200460075247957,-0.13084788812344875,-0.013978085940642256,0.12,120.0,1888.2301515082072
1.5999999999999992,0.016666666666666666,193.77557545142758,2006.2244245485724,0.08734467555004344,rolling,19.102785634157843,95.52380867088061,114.62659430503845,71.32284348168487,-144.15839048159813,2.6027766413982123,1.7823868424263816,0.27603459477708514,False,0.0,0.23855478775567981,0.012200460075247957,-0.13084788812344875,-0.013978085940642256,0.12,approach,normal,approach guidance tracking,检测到侧偏后立即修正，并沿目标接地点下滑,,0.2387251026566272,0.01210910284358609,-0.13012241102750244,-0.014118414834519526,0.12,120.0,1886.2244245485724
1.6166666666666658,0.016666666666666666,195.78092803452026,2004.2190719654798,0.09700585043988845,rolling,19.247153993942444,95.33954848324447,114.58670247718692,71.30978778474446,-143.0645695155099,2.5815012081419657,1.7909846334408825,0.29043914293507495,False,0.0,0.2387251026566272,0.01210910284358609,-0.13012241102750244,-0.014118414834519526,0.12,approach,normal,approach guidance tracking,检测到侧偏后立即修正，并沿目标接地点下滑,,0.23889602056008596,0.012019375280946636,-0.1293964744628439,-0.01426329758540548,0.12,120.0,1884.2190719654798
1.6333333333333324,0.016666666666666666,197.78590415126308,2002.2140958487369,0.10716927008456809,rolling,19.389936693165055,95.15717653914953,114.54711323231459,71.29665736217582,-141.97984068980043,2.560077187744172,1.7994445912413135,0.30515360585799817,False,0.0,0.23889602056008596,0.012019375280946636,-0.1293964744628439,-0.01426329758540548,0.12,approach,normal,approach guidance tracking,检测到侧偏后立即修正，并沿目标接地点下滑,,0.23906749883860376,0.011931296018360571,-0.12867117181735238,-0.014412766671382395,0.12,120.0,1882.2140958487369
1.649999999999999,0.016666666666666666,199.79050181045287,2000.209498189547,0.11784557673890114,rolling,19.531122890214352,94.9767011097568,114.50782399997115,71.28345493620523,-140.9045838213947,2.5385269624476994,1.807766893358501,0.32017333596937636,False,0.0,0.23906749883860376,0.011931296018360571,-0.12867117181735238,-0.014412766671382395,0.12,approach,normal,approach guidance tracking,检测到侧偏后立即修正，并沿目标接地点下滑,,0.2392395033554402,0.011844882616444674,-0.12794754821138712,-0.014566848073580805,0.12,120.0,1880.209498189547
1.6666666666666656,0.016666666666666666,201.79471909933534,1998.2052809006645,0.12904524277322102,rolling,19.670701939714487,94.79813013588137,114.46883207559586,71.2701817440605,-139.83918260236175,2.5168939736674525,1.8159521101072398,0.335493738812347,False,0.0,0.2392395033554402,0.011844882616444674,-0.12794754821138712,-0.014566848073580805,0.12,approach,normal,approach guidance tracking,检测到侧偏后立即修正，并沿目标接地点下滑,,0.23941201785255864,0.01176015277988779,-0.12722765970802652,-0.014725648424894747,0.12,120.0,1878.2052809006645
1.6833333333333322,0.016666666666666666,203.79855414137543,1996.2014458586245,0.14077857242295932,rolling,19.808663310759634,94.62147138053837,114.43013469129801,71.256839524748,-138.78399962986677,2.495221106947489,1.8240009741510683,0.3511099896265119,False,0.0,0.23941201785255864,0.01176015277988779,-0.12722765970802652,-0.014725648424894747,0.12,approach,normal,approach guidance tracking,检测到侧偏后立即修正，并沿目标接地点下滑,,0.23958502008224175,0.011677123327900477,-0.12651353090185583,-0.014889268623221095,0.12,120.0,1876.2014458586245
1.6999999999999988,0.016666666666666666,205.8020051101362,1994.1979948898638,0.15305569391810903,rolling,19.944996632702484,94.44673231982456,114.39172895252705,71.24343000951201,-137.73937919361646,2.4735490414692936,1.8319143517800063,0.3670170223475641,False,0.0,0.23958502008224175,0.011677123327900477,-0.12651353090185583,-0.014889268623221095,0.12,approach,normal,approach guidance tracking,检测到侧偏后立即修正，并沿目标接地点下滑,,0.23975848794109061,0.011595810291691416,-0.12580707546749892,-0.015057797386714887,0.12,120.0,1874.1979948898638
1.7166666666666655,0.016666666666666666,207.80507022886016,1992.1949297711399,0.16588655116695408,rolling,20.079691688612666,94.27392019043806,114.35361187905073,71.22995492059931,-136.7056476912891,2.451916302267141,1.8396932260872065,0.3832095400643049,False,0.0,0.23975848794109061,0.011595810291691416,-0.12580707546749892,-0.015057797386714887,0.12,approach,normal,approach guidance tracking,检测到侧偏后立即修正，并沿目标接地点下滑,,0.23993239947629888,0.0115162289620695,-0.12511009880673535,-0.015231311600746663,0.12,120.0,1872.1949297711399
1.733333333333332,0.016666666666666666,209.80774777003242,1990.1922522299676,0.17928089581687412,rolling,20.212738421817924,94.10304197941193,114.31578040122986,71.21641597004246,-135.68311362416173,2.4303593102763386,1.8473386809198076,0.39968202545410836,False,0.0,0.23993239947629888,0.0115162289620695,-0.12511009880673535,-0.015231311600746663,0.12,approach,normal,approach guidance tracking,检测到侧偏后立即修正，并沿目标接地点下滑,,0.24010673290210627,0.01143839388200382,-0.12442430059303224,-0.015409876656678588,0.12,120.0,1870.1922522299676
1.7499999999999987,0.016666666666666666,211.81003605492583,1988.1899639450742,0.19324827969102534,rolling,20.34412692282138,93.93410445209804,114.27823137491941,71.20281485841022,-134.67206469187806,2.4089124328643754,1.8548518857425065,0.4164287512161446,False,0.0,0.24010673290210627,0.01143839388200382,-0.12442430059303224,-0.015409876656678588,0.12,approach,normal,approach guidance tracking,检测到侧偏后立即修正，并沿目标接地点下滑,,0.2402814666097604,0.011362318773904197,-0.12375127734102193,-0.01559354679281782,0.12,120.0,1868.1899639450742
1.7666666666666653,0.016666666666666666,213.81193345312695,1986.188066546873,0.20779804760034956,rolling,20.473847412948363,93.76711414616848,114.24096155911684,71.18915327460029,-133.67276685066008,2.387612563958576,1.8622341101676734,0.43344383937623504,False,0.0,0.2402814666097604,0.011362318773904197,-0.12375127734102193,-0.01559354679281782,0.12,approach,normal,approach guidance tracking,检测到侧偏后立即修正，并沿目标接地点下滑,,0.24045657917108837,0.011288016505287136,-0.12309274324291467,-0.015782383381286465,0.12,120.0,1866.188066546873
1.7833333333333319,0.016666666666666666,215.81343838203864,1984.1865616179614,0.22293933223758344,rolling,20.601890303217218,93.60207736862417,114.20396767184138,71.17543289603375,-132.68547851425112,2.366506500688948,1.8694867555382402,0.4507213430015935,False,0.0,0.24045657917108837,0.011288016505287136,-0.12309274324291467,-0.015782383381286465,0.12,approach,normal,approach guidance tracking,检测到侧偏后立即修正，并沿目标接地点下滑,,0.240632049336706,0.011215499541224326,-0.12245088563487742,-0.01597648417987949,0.12,120.0,1864.1865616179614
1.7999999999999985,0.016666666666666666,217.81454930635115,1982.1854506936488,0.2386810519333295,rolling,20.72824612892704,93.43900019415183,114.16724632307887,71.16165538350079,-131.71043971501592,2.34563783372781,1.876611255105975,0.4682550946177133,False,0.0,0.240632049336706,0.011215499541224326,-0.12245088563487742,-0.01597648417987949,0.12,approach,normal,approach guidance tracking,检测到侧偏后立即修正，并沿目标接地点下滑,,0.24080785609817104,0.011144779596490169,-0.12182773310320895,-0.016175931239364706,0.12,120.0,1862.1854506936488
1.816666666666665,0.016666666666666666,219.8152647374808,1980.184735262519,0.25503190312437723,rolling,20.85290559544569,93.27788850129241,114.1307940967381,71.14782238233246,-130.747874364426,2.3250470268318026,1.8836090645744756,0.48603871995957326,False,0.0,0.24080785609817104,0.011144779596490169,-0.12182773310320895,-0.016175931239364706,0.12,approach,normal,approach guidance tracking,检测到侧偏后立即修正，并沿目标接地点下滑,,0.2409839786674155,0.011075867733649552,-0.12122515950382497,-0.016380791404478824,0.12,120.0,1860.184735262519
1.8333333333333317,0.016666666666666666,221.81558323305302,1978.184416766947,0.27200035331312533,rolling,20.975859565127656,93.11874791846796,114.09460748359561,71.13393552134718,-129.79799057873035,2.3047714653362243,1.8904816520245686,0.5040656512634905,False,0.0,0.2409839786674155,0.011075867733649552,-0.12122515950382497,-0.016380791404478824,0.12,approach,normal,approach guidance tracking,检测到侧偏后立即修正，并沿目标接地点下滑,,0.24116039649910917,0.011008774334703372,-0.12064488648587489,-0.016591116690543136,0.12,120.0,1858.184416766947
1.8499999999999983,0.016666666666666666,223.81550339636829,1976.1844966036317,0.28959463450100614,rolling,21.097099037689855,92.96158391438634,114.0586829520762,71.11999641206161,-128.8609810001497,2.284845510778134,1.8972304886933817,0.522329140532435,False,0.0,0.24116039649910917,0.011008774334703372,-0.12064488648587489,-0.016591116690543136,0.12,approach,normal,approach guidance tracking,检测到侧偏后立即修正，并沿目标接地点下滑,,0.24133708928386025,0.010943509176501762,-0.12008848631135573,-0.016806944683444437,0.12,120.0,1856.1844966036317
