t,dt,distance_ft,distance_to_runway_ft,cross_track_ft,terrain_type,terrain_elev_ft,h_agl_ft,h_sl_ft,vc_kts,vs_fpm,roll_deg,pitch_deg,yaw_deg,wow,runway_heading_deg,cmd_throttle,cmd_elevator,cmd_aileron,cmd_rudder,cmd_flaps,phase,mode,note,suggestion,alerts,throttle,elevator,aileron,rudder,flaps,target_td_past_threshold_ft,distance_to_td_ft
0.0,0.016666666666666666,0.0,2200.0,0.0,flat,0.0,120.0,120.0,72.00000000000111,-249.99881141522067,-0.13919080792375008,1.198185318768672,360.0,False,0.0,0.0,0.0,0.0,0.0,0.0,approach,normal,approach guidance tracking,检测到侧偏后立即修正，并沿目标接地点下滑,,0.22802147256355734,0.025688813774127846,0.006681158780340004,0.0005289250701102503,0.12,120.0,2080.0
0.016666666666666666,0.016666666666666666,2.0249289734051947,2197.975071026595,0.0,flat,0.0,119.9305714443326,119.9305714443326,72.0000704998379,-249.99732891590634,-0.1391908086685575,1.1981909082129325,359.9999999999844,False,0.0,0.22802147256355734,0.025688813774127846,0.006681158780340004,0.0005289250701102503,0.12,approach,normal,approach guidance tracking,检测到侧偏后立即修正，并沿目标接地点下滑,,0.22801402174000956,0.025715173690581614,0.006681158816359898,0.0005289250731741449,0.12,120.0,2077.975071026595
0.03333333333333333,0.016666666666666666,4.049859925417119,2195.950140074583,-5.504505880511188e-13,flat,0.0,119.86111515760422,119.86111515760422,72.00000085525588,-249.8727338911135,-0.13919077297794397,1.1981965003957278,359.9999999999622,False,0.0,0.22801402174000956,0.025715173690581614,0.006681158816359898,0.0005289250731741449,0.12,approach,normal,approach guidance tracking,检测到侧偏后立即修正，并沿目标接地点下滑,,0.2280082576224136,0.025737597910384914,0.006681157103597151,0.0005289249378837506,0.12,120.0,2075.950140074583
0.05,0.016666666666666666,6.074788914610206,2193.92521108539,-1.886396888169543e-12,flat,0.0,119.79173761606216,119.79173761606216,71.99982844956328,-249.67733207046984,-0.1346945909310014,1.1982156065098102,4.8506436624188315e-05,False,0.0,0.2280082576224136,0.025737597910384914,0.006681157103597151,0.0005289249378837506,0.12,approach,normal,approach guidance tracking,检测到侧偏后立即修正，并沿目标接地点下滑,,0.22800371248252702,0.02575783044384926,0.006464502173472256,0.0005111118489903289,0.12,120.0,2073.92521108539
0.06666666666666667,0.016666666666666666,8.099713040940163,2191.90028695906,1.7142928598710322e-06,flat,0.0,119.7224181368947,119.7224181368947,71.99954940048862,-249.4126914969379,-0.1232319363110226,1.1982621264155284,0.00016194542598409702,False,0.0,0.22800371248252702,0.02575783044384926,0.006464502173472256,0.0005111118489903289,0.12,approach,normal,approach guidance tracking,检测到侧偏后立即修正，并沿目标接地点下滑,,0.22800043665787117,0.02577590718852367,0.0059123262973623525,0.00046585046229926454,0.12,120.0,2071.90028695906
0.08333333333333333,0.016666666666666666,10.124629284902223,2189.8753707150977,7.437679931256311e-06,flat,0.0,119.65318160131574,119.65318160131574,71.99915995910216,-249.08235150040173,-0.10522061371115751,1.198329787711574,0.0003222942102454416,False,0.0,0.22800043665787117,0.02577590718852367,0.0059123262973623525,0.00046585046229926454,0.12,approach,normal,approach guidance tracking,检测到侧偏后立即修正，并沿目标接地点下滑,,0.22799847068546847,0.025791959812068867,0.005044984513318849,0.00039499648126878567,0.12,120.0,2069.8753707150977
0.09999999999999999,0.016666666666666666,12.149534526191674,2187.8504654738085,1.882796454045315e-05,flat,0.0,119.5840455442667,119.5840455442667,71.99865627262236,-248.68967911513158,-0.08105464057924572,1.1984142619167737,0.0005129581797035657,False,0.0,0.22799847068546847,0.025791959812068867,0.005044984513318849,0.00039499648126878567,0.12,approach,normal,approach guidance tracking,检测到侧偏后立即修正，并沿目标接地点下滑,,0.2279978576718431,0.02580610920187581,0.0038816684562287223,0.00030029443354103976,0.12,120.0,2067.8504654738085
0.11666666666666665,0.016666666666666666,14.174425539346064,2185.825574460654,3.6956427352530726e-05,flat,0.0,119.51502683386207,119.51502683386207,71.99803478170566,-248.23787239534505,-0.0511055612032016,1.1985133514794335,0.0007187197080211538,False,0.0,0.2279978576718431,0.02580610920187581,0.0038816684562287223,0.00030029443354103976,0.12,approach,normal,approach guidance tracking,检测到侧偏后立即修正，并沿目标接地点下滑,,0.2279986373232842,0.025818470313576147,0.002440470070347779,0.00018338338052449623,0.12,120.0,2065.825574460654
0.13333333333333333,0.016666666666666666,16.199299000422652,2183.800700999577,6.235649128488877e-05,flat,0.0,119.44614146277308,119.44614146277308,71.99728888482326,-247.7299708352046,-0.015723784996837676,1.1986267730443267,0.0009256836194939129,False,0.0,0.2279986373232842,0.025818470313576147,0.002440470070347779,0.00018338338052449623,0.12,approach,normal,approach guidance tracking,检测到侧偏后立即修正，并沿目标接地点下滑,,0.2280008860108126,0.025829152919937447,0.0007384465557451862,4.580277220428958e-05,0.12,120.0,2063.800700999577
0.15,0.016666666666666666,18.22415140002472,2181.7758485999752,9.507046627662546e-05,flat,0.0,119.3774046190083,119.3774046190083,71.99641451090953,-247.16886105353777,0.02476016190436216,1.1987563087742437,0.0011211965122620005,False,0.0,0.2280008860108126,0.025829152919937447,0.0007384465557451862,4.580277220428958e-05,0.12,approach,normal,approach guidance tracking,检测到侧偏后立即修正，并沿目标接地点下滑,,0.22800464988647998,0.025838260894923852,-0.0012083183853793989,-0.00011100163338678284,0.12,120.0,2061.7758485999752
0.16666666666666666,0.016666666666666666,20.248979112940724,2179.7510208870594,0.0001346934505313316,flat,3.2706509777302854e-09,119.3088306863682,119.30883068963885,71.99540785281543,-246.55726787313063,0.07003445863296369,1.1989054561527475,0.0012938140151175605,False,0.0,0.22800464988647998,0.025838260894923852,-0.0012083183853793989,-0.00011100163338678284,0.12,approach,normal,approach guidance tracking,检测到侧偏后立即修正，并沿目标接地点下滑,,0.22800997208118876,0.025845892314478494,-0.003384657649126039,-0.00028567284648255674,0.12,120.0,2059.7510208870594
0.18333333333333332,0.016666666666666666,22.273778404297254,2177.7262215957026,0.00018041608006875477,flat,0.0,119.24043334648013,119.24043334648013,71.99426484851136,-245.89775682847036,0.11980488664310503,1.1990791705485857,0.0014332636783947255,False,0.0,0.22800997208118876,0.025845892314478494,-0.003384657649126039,-0.00028567284648255674,0.12,approach,normal,approach guidance tracking,检测到侧偏后立即修正，并沿目标接地点下滑,,0.22801689891183372,0.025852139697414036,-0.005776267352416033,-0.00047693794049978876,0.12,120.0,2057.7262215957026
0.19999999999999998,0.016666666666666666,24.29854542131081,2175.701454578689,0.000231065971684801,flat,3.27065097773027e-09,119.17222556144759,119.17222556471825,71.99297982637216,-245.1927396981178,0.17379379584718882,1.1992836743354232,0.0015304029897169806,False,0.0,0.22801689891183372,0.025852139697414036,-0.005776267352416033,-0.00047693794049978876,0.12,approach,normal,approach guidance tracking,检测到侧偏后立即修正，并沿目标接地点下滑,,0.22802549614108308,0.025857090398823564,-0.008369656680991459,-0.0006836035350367569,0.12,120.0,2055.701454578689
0.21666666666666665,0.016666666666666666,26.323276147079568,2173.6767238529205,0.0002851476855920595,flat,0.0,119.10421965643764,119.10421965643764,71.99154984562627,-244.44446945701367,0.23173913407203975,1.199526212665516,0.001577162827452275,False,0.0,0.22802549614108308,0.025857090398823564,-0.008369656680991459,-0.0006836035350367569,0.12,approach,normal,approach guidance tracking,检测到侧偏后立即修正，并沿目标接地点下滑,,0.2280357968775586,0.025860825768205073,-0.011152100518007125,-0.0009045512995711273,0.12,120.0,2053.6767238529205
0.2333333333333333,0.016666666666666666,28.34796647662507,2171.652033523375,0.0003408806968469091,flat,-3.2706509777302597e-09,119.03642734467223,119.03642734140158,71.9899714375082,-243.65504798079127,0.2933935369087774,1.1998149762754327,0.0015665326038350675,False,0.0,0.2280357968775586,0.025860825768205073,-0.011152100518007125,-0.0009045512995711273,0.12,approach,normal,approach guidance tracking,检测到侧偏后立即修正，并沿目标接地点下滑,,0.22804784067678982,0.02586342196986644,-0.01411159568236045,-0.001138734310007727,0.12,120.0,2051.652033523375
0.24999999999999997,0.016666666666666666,30.37261220133719,2169.6273877986628,0.00039623684289353845,flat,0.0,118.96885978803039,118.96885978803039,71.98824125883709,-242.82643618226078,0.3585234736153393,1.2001589547121168,0.001492526347542407,False,0.0,0.22804784067678982,0.02586342196986644,-0.01411159568236045,-0.001138734310007727,0.12,approach,normal,approach guidance tracking,检测到侧偏后立即修正，并沿目标接地点下滑,,0.22806166568751057,0.02586495023872502,-0.017236819525667708,-0.001385173331794319,0.12,120.0,2049.6273877986628
0.26666666666666666,0.016666666666666666,32.39720901190633,2167.6027909880936,0.0004489765753531178,flat,3.2706509777302357e-09,118.90152762503192,118.90152762830257,71.98635606702247,-241.96045713464133,0.42682387573671554,1.200567200320744,0.0013492635760743458,False,0.0,0.22806166568751057,0.02586495023872502,-0.017236819525667708,-0.001385173331794319,0.12,approach,normal,approach guidance tracking,检测到侧偏后立即修正，并沿目标接地点下滑,,0.2280773089465244,0.025865477001483523,-0.020513016397518607,-0.0016426186580159872,0.12,120.0,2047.6027909880936
0.2833333333333333,0.016666666666666666,34.42175250109438,2165.5782474989055,0.0004966527359901105,flat,0.0,118.83444098755717,118.83444098755717,71.98431273426016,-241.05879804188254,0.4979202301125504,1.201048748961786,0.0011311197655370507,False,0.0,0.2280773089465244,0.025865477001483523,-0.020513016397518607,-0.0016426186580159872,0.12,approach,normal,approach guidance tracking,检测到侧偏后立即修正，并沿目标接地点下滑,,0.22809480620531813,0.025865063949077546,-0.02392210072808365,-0.0019095603236467373,0.12,120.0,2045.5782474989055
0.3,0.016666666666666666,36.44623816696046,2163.5537618330395,0.0005366196545139428,flat,-3.2706509777302146e-09,118.76760956972078,118.76760956645012,71.98210826317312,-240.12302094551288,0.5714501090742652,1.2016131159638825,0.0008337000018845586,False,0.0,0.22809480620531813,0.025865063949077546,-0.02392210072808365,-0.0019095603236467373,0.12,approach,normal,approach guidance tracking,检测到侧偏后立即修正，并沿目标接地点下滑,,0.2281141917299443,0.025863768428590957,-0.027446587345938963,-0.00218455253416499,0.12,120.0,2043.5537618330395
0.31666666666666665,0.016666666666666666,38.4706614161553,2161.5293385838445,0.0005660766525852224,flat,3.270650977730204e-09,118.70104264140889,118.70104264467955,71.97973976855509,-239.15456252807104,0.6470633550051601,1.2022701968444574,0.00045380433296509726,False,0.0,0.2281141917299443,0.025863768428590957,-0.027446587345938963,-0.00218455253416499,0.12,approach,normal,approach guidance tracking,检测到侧偏后立即修正，并沿目标接地点下滑,,0.22813549851762924,0.02586164344952282,-0.031069599947053734,-0.0024662138906666703,0.12,120.0,2041.5293385838445
0.3333333333333333,0.016666666666666666,40.49501756677071,2159.504982433229,0.0005821103220877808,flat,-3.2706509777301902e-09,118.63474911405876,118.6347491107881,71.97720447440376,-238.15473846843508,0.7244224447727523,1.2030301662665446,359.9999893925732,False,0.0,0.22813549851762924,0.02586164344952282,-0.031069599947053734,-0.0024662138906666703,0.12,approach,normal,approach guidance tracking,检测到侧偏后立即修正，并沿目标接地点下滑,,0.2281587583205085,0.025858737870712814,-0.03477488818230275,-0.002753228289056306,0.12,120.0,2039.504982433229
0.35,0.016666666666666666,42.51930185117486,2157.480698148825,0.0005817355571821608,flat,0.0,118.56873751431704,118.56873751431704,71.9744997094506,-237.1247474136408,0.8032027981449991,1.2039033839885043,359.99943954622273,False,0.0,0.2281587583205085,0.025858737870712814,-0.03477488818230275,-0.002753228289056306,0.12,approach,normal,approach guidance tracking,检测到侧偏后立即修正，并沿目标接地点下滑,,0.22818400170398304,0.025855096508956926,-0.038546842000363235,-0.003044345561849154,0.12,120.0,2037.480698148825
0.36666666666666664,0.016666666666666666,44.543509418785085,2155.456490581215,0.0005619352370387696,flat,3.270650977730164e-09,118.50301607743665,118.50301608070731,71.97162290300312,-236.06567509846508,0.8830930328129117,1.2049003076413052,359.9988044277426,False,0.0,0.22818400170398304,0.025855096508956926,-0.038546842000363235,-0.003044345561849154,0.12,approach,normal,approach guidance tracking,检测到侧偏后立即修正，并沿目标接地点下滑,,0.22821125807977444,0.025850760338542125,-0.04237050337554941,-0.0033383818760648674,0.12,120.0,2035.456490581215
0.3833333333333333,0.016666666666666666,46.56763533878159,2153.4323646612183,0.0005196984646996177,flat,0.0,118.43759274110198,118.43759274110198,71.96857158091359,-234.97849857238688,0.9637951680094653,1.2060314122012668,359.99808523743434,False,0.0,0.22821125807977444,0.025850760338542125,-0.04237050337554941,-0.0033383818760648674,0.12,approach,normal,approach guidance tracking,检测到侧偏后立即修正，并沿目标接地点下滑,,0.22824055575538696,0.025845766622534704,-0.04623157551995027,-0.0036342198984157456,0.12,120.0,2033.4323646612183
0.39999999999999997,0.016666666666666666,48.5916746027599,2151.40832539724,0.00045205727635539805,flat,0.0,118.37247518450022,118.37247518450022,71.96534336174852,-233.8640905158198,1.0450247787731468,1.207307116004873,359.9972841681875,False,0.0,0.22824055575538696,0.025845766622534704,-0.04623157551995027,-0.0036342198984157456,0.12,approach,normal,approach guidance tracking,检测到侧偏后立即修正，并沿目标接地点下滑,,0.22827192197301485,0.0258401490794984,-0.0501164296823174,-0.0039308087394266805,0.12,120.0,2031.4083253972399
0.41666666666666663,0.016666666666666666,50.61562212732256,2149.3843778726773,0.00035612174465113843,flat,0.0,118.3076708689332,118.3076708689332,71.96193595314544,-232.72322362934688,1.1265111029503028,1.2087377131375827,359.9964043583629,False,0.0,0.22827192197301485,0.0258401490794984,-0.0501164296823174,-0.0039308087394266805,0.12,approach,normal,approach guidance tracking,检测到侧偏后立即修正，并沿目标接地点下滑,,0.22830538294592728,0.025833938053653936,-0.05401210963849968,-0.0042271636883992264,0.12,120.0,2029.3843778726773
0.4333333333333333,0.016666666666666666,52.639472756610225,2147.3605272433897,0.00022911340918535013,flat,0.0,118.24318704009056,118.24318704009056,71.95834714839056,-231.55657508162838,1.2079971030666201,1.210333312016035,359.9954498430884,False,0.0,0.22830538294592728,0.025833938053653936,-0.05401210963849968,-0.0042271636883992264,0.12,approach,normal,approach guidance tracking,检测到侧偏后立即修正，并沿目标接地点下滑,,0.22834096389910288,0.025827160659301792,-0.05790633398012956,-0.004522365751388472,0.12,120.0,2027.3605272433897
0.44999999999999996,0.016666666666666666,54.66322126477356,2145.3367787352263,6.83969771842758e-05,flat,0.0,118.17903078719974,118.17903078719974,71.95457482308242,-230.3647310034353,1.2892394852249995,1.2121037799725332,359.99442550424124,False,0.0,0.22834096389910288,0.025827160659301792,-0.05790633398012956,-0.004522365751388472,0.12,approach,normal,approach guidance tracking,检测到侧偏后立即修正，并沿目标接地点下滑,,0.2283786890985956,0.02581984096768284,-0.061787496309579006,-0.004815561004450709,0.12,120.0,2025.3367787352263
0.4666666666666666,0.016666666666666666,56.68686235838378,2143.3131376416163,-0.00012848975289711685,flat,-3.2706509777300736e-09,118.11520903512076,118.1152090318501,71.9506169320301,-229.14819101640217,1.3700086772053293,1.2140586936408555,359.9933370193907,False,0.0,0.2283786890985956,0.02581984096768284,-0.061787496309579006,-0.004815561004450709,0.12,approach,normal,approach guidance tracking,检测到侧偏后立即修正，并沿目标接地点下滑,,0.22841858189015696,0.02581200014665409,-0.06564466345011334,-0.005105959774487975,0.12,120.0,2023.3131376416163
0.4833333333333333,0.016666666666666666,58.710390678784144,2141.2896093212157,-0.00036380778234661746,flat,0.0,118.05172858014703,118.05172858014703,71.94647150626732,-227.9073727858983,1.4500887679516774,1.216207294934854,359.99219080997096,False,0.0,0.22841858189015696,0.02581200014665409,-0.06564466345011334,-0.005105959774487975,0.12,approach,normal,approach guidance tracking,检测到侧偏后立即修正，并沿目标接地点下滑,,0.22846066472859974,0.025803656632606812,-0.0694675717806235,-0.005392835659998487,0.12,120.0,2021.2896093212157
0.49999999999999994,0.016666666666666666,60.73380080438172,2139.2661991956184,-0.0006395906456365236,flat,3.2706509777300347e-09,117.98859611944124,117.9885961227119,71.94213665025407,-226.64261658818535,1.5292774106347116,1.2185584524044575,359.99099398894407,False,0.0,0.22846066472859974,0.025803656632606812,-0.0694675717806235,-0.005392835659998487,0.12,approach,normal,approach guidance tracking,检测到侧偏后立即修正，并沿目标接地点下滑,,0.22850495920605865,0.0257948262982474,-0.07324662180432062,-0.005675524403927307,0.12,120.0,2019.2661991956184
0.5166666666666666,0.016666666666666666,62.75708725288085,2137.242912747119,-0.0009576200049421823,flat,3.2706509777300157e-09,117.92581826866433,117.92581827193499,71.93760610064543,-225.3542227208661,1.6073856914722129,1.2211206277481368,359.98975430820707,False,0.0,0.22850495920605865,0.0257948262982474,-0.07324662180432062,-0.005675524403927307,0.12,approach,normal,approach guidance tracking,检测到侧偏后立即修正，并沿目标接地点下滑,,0.22855153934357078,0.025785524416499624,-0.07697287106046063,-0.005953422630695491,0.12,120.0,2017.2429127471191
0.5333333333333333,0.016666666666666666,64.7802443586295,2135.2197556413703,-0.0013194030929787838,flat,-3.2706509777299954e-09,117.86340156152085,117.86340155825019,71.9328769678293,-224.0423982266898,1.6842379644945433,1.2239023367330135,359.9884800780073,False,0.0,0.22855153934357078,0.025785524416499624,-0.07697287106046063,-0.005953422630695491,0.12,approach,normal,approach guidance tracking,检测到侧偏后立即修正，并沿目标接地点下滑,,0.22860043869386054,0.025775762638388485,-0.08063802490885767,-0.006225986032095562,0.12,120.0,2015.2197556413703
0.55,0.016666666666666666,66.80326636733199,2133.196733632668,-0.0017261530450840277,flat,0.0,117.80135246738791,117.80135246738791,71.92794844450884,-222.70726529343597,1.7596716590375772,1.2269118990984194,359.98718012878425,False,0.0,0.22860043869386054,0.025775762638388485,-0.08063802490885767,-0.006225986032095562,0.12,approach,normal,approach guidance tracking,检测到侧偏后立即修正，并沿目标接地点下滑,,0.22865166583428492,0.025765549496307234,-0.08423442672457908,-0.006492728083061397,0.12,120.0,2013.196733632668
0.5666666666666668,0.016666666666666666,68.82614749461942,2131.1738525053806,-0.0021787705945895603,flat,3.270650977729952e-09,117.73967747063205,117.7396774739027,71.92281891426019,-221.34888801118436,1.8335370605054584,1.2301571095214563,359.9858637763654,False,0.0,0.22865166583428492,0.025765549496307234,-0.08423442672457908,-0.006492728083061397,0.12,approach,normal,approach guidance tracking,检测到侧偏后立即修正，并沿目标接地点下滑,,0.22870523904931056,0.02575489180906925,-0.08775504686100244,-0.006753218704807454,0.12,120.0,2011.1738525053806
0.5833333333333335,0.016666666666666666,70.84888190354181,2129.151118096458,-0.002677826998233766,flat,6.541301955459854e-09,117.67838301973076,117.67838302627206,71.91748682481254,-219.9672725412554,1.9056970645992148,1.2336452190037361,359.9845407701988,False,0.0,0.22870523904931056,0.02575489180906925,-0.08775504686100244,-0.006753218704807454,0.12,approach,normal,approach guidance tracking,检测到侧偏后立即修正，并沿目标接地点下滑,,0.2287611758605234,0.025743794501506,-0.09119347004020614,-0.007007082571460859,0.12,120.0,2009.151118096458
0.6000000000000002,0.016666666666666666,72.87146370662812,2127.128536293372,-0.0032235488083211606,flat,3.270650977729911e-09,117.617475584604,117.61747558787465,71.91195068526457,-218.5623717488291,1.97602690781153,1.2373829235129996,359.98322124247335,False,0.0,0.2287611758605234,0.025743794501506,-0.09119347004020614,-0.007007082571460859,0.12,approach,normal,approach guidance tracking,检测到侧偏后立即修正，并沿目标接地点下滑,,0.22881949304969262,0.025732260794518416,-0.09454388161061296,-0.007253997337975719,0.12,120.0,2007.1285362933718
0.6166666666666669,0.016666666666666666,74.89388696787162,2125.106113032128,-0.0038158044564688878,flat,3.270650977729884e-09,117.55696163371965,117.55696163699031,71.90620906395726,-217.13409010858362,2.0444138761704647,1.2413763567379335,359.9819156582258,False,0.0,0.22881949304969262,0.025732260794518416,-0.09454388161061296,-0.007253997337975719,0.12,approach,normal,approach guidance tracking,检测到侧偏后立即修正，并沿目标接地点下滑,,0.22888020668839892,0.02572029234600046,-0.09780105276893263,-0.007493691798377896,0.12,120.0,2005.1061130321282
0.6333333333333336,0.016666666666666666,76.91614570465686,2123.0838542953434,-0.004454092614087313,flat,0.0,117.49684768915176,117.49684768915176,71.90026058654051,-215.68228850702462,2.110756994225782,1.245631086729812,359.98063476659627,False,0.0,0.22888020668839892,0.02572029234600046,-0.09780105276893263,-0.007493691798377896,0.12,approach,normal,approach guidance tracking,检测到侧偏后立即修正，并沿目标接地点下滑,,0.22894333215130663,0.025707889444558776,-0.10096032484507343,-0.0077259439843878975,0.12,120.0,2003.0838542953434
0.6500000000000004,0.016666666666666666,78.93823388963192,2121.061766110368,-0.005137532288915183,flat,-3.270650977729843e-09,117.43714030786589,117.43714030459523,71.89410393414917,-214.20678894343607,2.174966696229019,1.25015211615291,359.9793895533793,False,0.0,0.22894333215130663,0.025707889444558776,-0.10096032484507343,-0.0077259439843878975,0.12,approach,normal,approach guidance tracking,检测到侧偏后立即修正，并沿目标接地点下滑,,0.22900888414140216,0.025695051146860968,-0.10401759274640028,-0.007950579214070738,0.12,120.0,2001.061766110368
0.6666666666666671,0.016666666666666666,80.96014545252743,2119.0398545474727,-0.005864854611680826,flat,3.2706509777298168e-09,117.37784609616563,117.37784609943628,71.88773784170527,-212.7073791187003,2.23696448140816,1.2549438858707402,359.9781911949967,False,0.0,0.22900888414140216,0.025695051146860968,-0.10401759274640028,-0.007950579214070738,0.12,approach,normal,approach guidance tracking,检测到侧偏后立即修正，并沿目标接地点下滑,,0.22907687670774973,0.02568177543525662,-0.10696928765499904,-0.008167468099690206,0.12,120.0,1999.0398545474727
0.6833333333333338,0.016666666666666666,82.98187428192436,2117.0181257180757,-0.006634396262389361,flat,6.54130195545958e-09,117.31897172050209,117.31897172704339,71.88116109641759,-211.1838169020697,2.2966825551844376,1.2600102815995093,359.9770510140058,False,0.0,0.22907687670774973,0.02568177543525662,-0.10696928765499904,-0.008167468099690206,0.12,approach,normal,approach guidance tracking,检测到侧偏后立即修正，并沿目标接地点下滑,,0.2291473232615344,0.025668059368846138,-0.10981235906881343,-0.008376524523525187,0.12,120.0,1997.0181257180757
0.7000000000000005,0.016666666666666666,85.00341422697508,2114.996585773025,-0.007444094481691695,flat,3.2706509777297618e-09,117.26052395672366,117.26052395999432,71.87437253625868,-209.63583466616427,2.3540634581228312,1.2653546433646083,359.9759804362373,False,0.0,0.2291473232615344,0.025668059368846138,-0.10981235906881343,-0.008376524523525187,0.12,approach,normal,approach guidance tracking,检测到侧偏后立即修正，并沿目标接地点下滑,,0.22922023658545607,0.025653899258017854,-0.11254425627456446,-0.008577703589944679,0.12,120.0,1994.996585773025
0.7166666666666672,0.016666666666666666,87.02475909907592,2112.9752409009243,-0.008291483609342924,flat,6.5413019554594755e-09,117.20250960530372,117.20250961184502,71.86737104876444,-208.06314348115288,2.4090596843493075,1.2709797775013312,359.974990949643,False,0.0,0.22922023658545607,0.025653899258017854,-0.11254425627456446,-0.008577703589944679,0.12,approach,normal,approach guidance tracking,检测到侧偏后立即修正，并沿目标接地点下滑,,0.22929562886337834,0.025639290737931947,-0.11516290933727248,-0.00877099956156261,0.12,120.0,1992.9752409009243
0.733333333333334,0.016666666666666666,89.04590267349954,2110.9540973265002,-0.009173693088924895,flat,-6.541301955459433e-09,117.14493558837442,117.14493558183312,71.86015556976041,-206.4654371589701,2.461633291107387,1.2768879709470744,359.97409406491846,False,0.0,0.22929562886337834,0.025639290737931947,-0.11516290933727248,-0.00877099956156261,0.12,approach,normal,approach guidance tracking,检测到侧偏后立即修正，并沿目标接地点下滑,,0.2293735116781314,0.02562422896812119,-0.11766670968811875,-0.008956443786896058,0.12,120.0,1990.9540973265002
0.7500000000000007,0.016666666666666666,91.06683869098423,2108.9331613090158,-0.010087446875573643,flat,0.0,117.08780886977911,117.08780886977911,71.85283314150725,-204.94055060055177,2.51175550106424,1.2830810075783199,359.9733012779516,False,0.0,0.2293735116781314,0.02562422896812119,-0.11766670968811875,-0.008956443786896058,0.12,approach,normal,approach guidance tracking,检测到侧偏后立即修正，并沿目标接地点下滑,,0.22945259932814158,0.025611831294976305,-0.12005449038908401,-0.009134102626442202,0.12,120.0,1988.9331613090158
0.7666666666666674,0.016666666666666666,93.08756389824656,2106.9124361017534,-0.011029065597772184,flat,3.270650977729652e-09,117.03108429209158,117.03108429536223,71.84539597383669,-203.47077345304615,2.5593929220444043,1.2895748210002886,359.97262527651793,False,0.0,0.22945259932814158,0.025611831294976305,-0.12005449038908401,-0.009134102626442202,0.12,approach,normal,approach guidance tracking,检测到侧偏后立即修正，并沿目标接地点下滑,,0.22953299345445435,0.025601499769232344,-0.12232488552149196,-0.009304043185939928,0.12,120.0,1986.9124361017534
0.7833333333333341,0.016666666666666666,95.10807480711117,2104.8919251928887,-0.011994423356901946,flat,0.0,116.97476239874959,116.97476239874959,71.83783492474551,-202.0436341918507,2.6045191596678157,1.296375382197794,359.9720785477226,False,0.0,0.22953299345445435,0.025601499769232344,-0.12232488552149196,-0.009304043185939928,0.12,approach,normal,approach guidance tracking,检测到侧偏后立即修正，并沿目标接地点下滑,,0.2296148036961949,0.025592837163862046,-0.12447686373658885,-0.009466356599220058,0.12,120.0,1984.8919251928887
0.8000000000000008,0.016666666666666666,97.128367664038,2102.871632335962,-0.01297895500718576,flat,3.2706509777295942e-09,116.91883244038388,116.91883244365454,71.83014977302527,-200.655331287606,2.6471175923715022,1.303483238464029,359.97167333336563,False,0.0,0.2296148036961949,0.025592837163862046,-0.12447686373658885,-0.009466356599220058,0.12,approach,normal,approach guidance tracking,检测到侧偏后立即修正，并沿目标接地点下滑,,0.2296980346781597,0.025585714011519094,-0.1265098606503557,-0.009621167896488963,0.12,120.0,1982.8716323359622
0.8166666666666675,0.016666666666666666,99.14843870508952,2100.8515612949104,-0.0139776651584888,flat,-3.270650977729568e-09,116.86328318669632,116.86328318342566,71.8223403728383,-199.30193704340053,2.6871807390256213,1.310896350627011,359.9714216902608,False,0.0,0.2296980346781597,0.025585714011519094,-0.1265098606503557,-0.009621167896488963,0.12,approach,normal,approach guidance tracking,检测到侧偏后立即修正，并沿目标接地点下滑,,0.2297826902073611,0.02557999643652037,-0.12842374948817567,-0.009768634497050831,0.12,120.0,1980.8515612949104
0.8333333333333343,0.016666666666666666,101.16828415995793,2098.831715840042,-0.014985134943028212,flat,0.0,116.80810546129942,116.80810546129942,71.81440657459848,-197.97974929406237,2.7247097545927907,1.3186103135674028,359.97133545478175,False,0.0,0.2297826902073611,0.02557999643652037,-0.12842374948817567,-0.009768634497050831,0.12,approach,normal,approach guidance tracking,检测到侧偏后立即修正，并沿目标接地点下滑,,0.22986877376614917,0.025575559248614745,-0.1302188162313561,-0.009908943754235853,0.12,120.0,1978.8317158400419
0.850000000000001,0.016666666666666666,103.18790025364788,2096.812099746352,-0.015995530035269042,flat,0.0,116.75329110771418,116.75329110771418,71.80634823874725,-196.68528257637863,2.759713923017205,1.3266186202112533,359.9714262132741,False,0.0,0.22986877376614917,0.025575559248614745,-0.1302188162313561,-0.009908943754235853,0.12,approach,normal,approach guidance tracking,检测到侧偏后立即修正，并沿目标接地点下滑,,0.22995628853300384,0.02557228491460474,-0.13189573472603347,-0.010042310576542033,0.12,120.0,1976.812099746352
0.8666666666666677,0.016666666666666666,105.20728320839217,2094.7927167916077,-0.01700260971836761,flat,0.0,116.69883288815618,116.69883288815618,71.79816524402472,-195.41526973669136,2.7922101537061037,1.3349129100120463,359.9717052758687,False,0.0,0.22995628853300384,0.02557228491460474,-0.13189573472603347,-0.010042310576542033,0.12,approach,normal,approach guidance tracking,检测到侧偏后立即修正，并沿目标接地点下滑,,0.23004523730148227,0.02557006353644825,-0.1334555420182562,-0.010168975112395544,0.12,120.0,1974.7927167916077
0.8833333333333344,0.016666666666666666,107.226429245657,2092.773570754343,-0.01799973687622408,flat,0.0,116.64472443237901,116.64472443237901,71.78985749504973,-194.1666616243777,2.8222224829997664,1.343483204218437,359.9721836535208,False,0.0,0.23004523730148227,0.02557006353644825,-0.1334555420182562,-0.010168975112395544,0.12,approach,normal,approach guidance tracking,检测到侧偏后立即修正，并沿目标接地点下滑,,0.23013562239844695,0.025568792804219694,-0.13489961397982236,-0.010289200501334906,0.12,120.0,1972.773570754343
0.9000000000000011,0.016666666666666666,109.24533458822546,2090.7546654117746,-0.018979888796466216,flat,0.0,116.59096018597484,116.59096018597484,71.78142492914114,-192.93662546941846,2.84978158206217,1.352318127729994,359.9728720380066,False,0.0,0.23013562239844695,0.025568792804219694,-0.13489961397982236,-0.010289200501334906,0.12,approach,normal,approach guidance tracking,检测到侧偏后立即修正，并沿目标接地点下滑,,0.2302274456114972,0.025568377906655157,-0.13622964128951492,-0.010403270693138558,0.12,120.0,1970.7546654117746
0.9166666666666679,0.016666666666666666,111.26399546234597,2088.736004537654,-0.01993566867920908,flat,0.0,116.53753537684679,116.53753537684679,71.77286752237629,-191.72254207558908,2.8749242724898743,1.3614051175262827,359.97378078461526,False,0.0,0.2302274456114972,0.025568377906655157,-0.13622964128951492,-0.010403270693138558,0.12,approach,normal,approach guidance tracking,检测到侧偏后立即修正，并沿目标接地点下滑,,0.23032070812228156,0.025568731416969626,-0.13744760582800541,-0.010511488336011178,0.12,120.0,1968.736004537654
0.9333333333333346,0.016666666666666666,113.2824080999315,2086.7175919000683,-0.020859317755683088,flat,3.2706509777293333e-09,116.48444588155314,116.4844458848238,71.76418529503887,-190.5220019683915,2.89769305081406,1.3707306177386132,359.9749198972882,False,0.0,0.23032070812228156,0.025568731416969626,-0.13744760582800541,-0.010511488336011178,0.12,approach,normal,approach guidance tracking,检测到侧偏后立即修正，并沿目标接地点下滑,,0.23041541046516115,0.02556977307319899,-0.13855575753898774,-0.010614172734660785,0.12,120.0,1966.7175919000683
0.9500000000000013,0.016666666666666666,115.30056874079888,2084.699431259201,-0.021742727929619367,flat,0.0,116.43168828263879,116.43168828263879,71.75537831620515,-189.33280062771968,2.918135622953496,1.380280261510425,359.9762990159689,False,0.0,0.23041541046516115,0.02556977307319899,-0.13855575753898774,-0.010614172734660785,0.12,approach,normal,approach guidance tracking,检测到侧偏后立即修正，并沿目标接地点下滑,,0.23051155246183397,0.025571429666875426,-0.13955659180364807,-0.010711657878827031,0.12,120.0,1964.699431259201
0.966666666666668,0.016666666666666666,117.31847363493019,2082.6815263650697,-0.022577454862642718,flat,0.0,116.37925969436765,116.37925969436765,71.74644670790839,-188.15293292751105,2.9363044495646973,1.3900390398587823,359.9779274059421,False,0.0,0.23051155246183397,0.025571429666875426,-0.13955659180364807,-0.010711657878827031,0.12,approach,normal,approach guidance tracking,检测到侧偏后立即修正，并沿目标接地点下滑,,0.23060913320270887,0.02557363473961398,-0.1404528273704447,-0.01080429054261509,0.12,120.0,1962.6815263650697
0.9833333333333347,0.016666666666666666,119.33611904474988,2080.66388095525,-0.023354731432759977,flat,3.2706509777292307e-09,116.32715777353212,116.32715777680278,71.73739064848802,-186.98058689589976,2.9522563031296696,1.3999914578074948,359.97981394895623,False,0.0,0.23060913320270887,0.02557363473961398,-0.1404528273704447,-0.01080429054261509,0.12,approach,normal,approach guidance tracking,检测到侧偏后立即修正，并沿目标接地点下滑,,0.2307081510047481,0.025576328391318508,-0.14124738487731062,-0.010892428454803503,0.12,120.0,1960.66388095525
1.0000000000000013,0.016666666666666666,121.35350124739988,2078.6464987526,-0.024065481502330555,flat,0.0,116.2753806822002,116.2753806822002,71.72821037547244,-185.81413690218199,2.9660518375211353,1.4101216781115893,359.9819671359404,False,0.0,0.2307081510047481,0.025576328391318508,-0.14124738487731062,-0.010892428454803503,0.12,approach,normal,approach guidance tracking,检测到侧偏后立即修正，并沿目标接地点下滑,,0.23080860338355763,0.025579457035491103,-0.14194336599885357,-0.010976438540184107,0.12,120.0,1958.6464987526
1.016666666666668,0.016666666666666666,123.37061653700422,2076.629383462996,-0.02470033393855812,flat,-6.5413019554583315e-09,116.22392697168856,116.22392696514726,71.71890618786914,-184.65213636883792,2.977755170690051,1.420413652935584,359.9843950611432,False,0.0,0.23080860338355763,0.025579457035491103,-0.14194336599885357,-0.010976438540184107,0.12,approach,normal,approach guidance tracking,检测到侧偏后立即修正，并沿目标接地点下滑,,0.23091048704676995,0.02558297308269953,-0.14254403324677145,-0.011056695231831263,0.12,120.0,1956.629383462996
1.0333333333333345,0.016666666666666666,125.38746122691113,2074.612538773089,-0.02524963683570122,flat,0.0,116.17279558256269,116.17279558256269,71.70947844793332,-183.49331009955327,2.9874334810302785,1.4308512438824885,359.987105417539,False,0.0,0.23091048704676995,0.02558297308269953,-0.14254403324677145,-0.011056695231831263,0.12,approach,normal,approach guidance tracking,检测到侧偏后立即修正，并沿目标接地点下滑,,0.23101379787279816,0.025586834695358156,-0.1430527904477159,-0.011133578854164335,0.12,120.0,1954.612538773089
1.0500000000000012,0.016666666666666666,127.40403165190196,2072.595968348098,-0.025703471893622397,flat,-3.270650977729087e-09,116.12198580383495,116.12198580056429,71.6999275824822,-182.33654630725033,2.9951566178904256,1.4414183308005486,359.99010549336117,False,0.0,0.23101379787279816,0.025586834695358156,-0.1430527904477159,-0.011133578854164335,0.12,approach,normal,approach guidance tracking,检测到侧偏后立即修正，并沿目标接地点下滑,,0.23111853090238907,0.025591005503583432,-0.14347316391893206,-0.011207474076507552,0.12,120.0,1952.5959683480978
1.0666666666666678,0.016666666666666666,129.42032417035844,2070.5796758296415,-0.026051668912322076,flat,3.2706509777290367e-09,116.07149718002245,116.0714971832931,71.69025408370025,-181.18088841897915,3.0009967266228945,1.452098909817249,359.9934021696403,False,0.0,0.23111853090238907,0.025591005503583432,-0.14347316391893206,-0.011207474076507552,0.12,approach,normal,approach guidance tracking,检测到侧偏后立即修正，并沿目标接地点下滑,,0.2312246803456688,0.025595454276429296,-0.1438087843585045,-0.011278768436859465,0.12,120.0,1950.5796758296415
1.0833333333333344,0.016666666666666666,131.43633516637752,2068.5636648336226,-0.026283820366384256,flat,-3.2706509777290007e-09,116.02132954030469,116.02132953703403,71.68045850958093,-180.02552672833636,3.0050278884849284,1.462877181069581,359.9970019186385,False,0.0,0.2312246803456688,0.025595454276429296,-0.1438087843585045,-0.011278768436859465,0.12,approach,normal,approach guidance tracking,检测到侧偏后立即修正，并沿目标接地点下滑,,0.2313322395715738,0.025600154676192175,-0.14406336946359102,-0.011347850935453676,0.12,120.0,1948.5636648336226
1.100000000000001,0.016666666666666666,133.4520610518276,2066.5479389481725,-0.02638929602716911,flat,3.270650977728955e-09,115.97148287714288,115.97148288041353,71.67054148392297,-178.86978995951824,3.007325775635831,1.4737376266123823,0.0009108030856801756,False,0.0,0.2313322395715738,0.025600154676192175,-0.14406336946359102,-0.011347850935453676,0.12,approach,normal,approach guidance tracking,检测到侧偏后立即修正，并沿目标接地点下滑,,0.23144120112972444,0.02560508490155136,-0.14424070728691002,-0.01141511069767419,0.12,120.0,1946.5479389481725
1.1166666666666676,0.016666666666666666,135.4674982683374,2064.5325017316627,-0.026357257603897545,flat,0.0,115.92195738479495,115.92195738479495,71.66050369604699,-177.71313680139423,3.007967321408304,1.4846650789970806,0.0051344761374321575,False,0.0,0.23144120112972444,0.02560508490155136,-0.14424070728691002,-0.01141511069767419,0.12,approach,normal,approach guidance tracking,检测到侧偏后立即修正，并沿目标接地点下滑,,0.2315515567468746,0.025610227444897483,-0.14434464033875472,-0.01148093570580914,0.12,120.0,1944.5325017316627
1.1333333333333342,0.016666666666666666,137.48264328921312,2062.5173567107868,-0.02617667337767298,flat,0.0,115.87275337800384,115.87275337800384,71.6503459000593,-176.55514746415543,3.007030405969867,1.4956447810185842,0.009678181983967459,False,0.0,0.2315515567468746,0.025610227444897483,-0.14434464033875472,-0.01148093570580914,0.12,approach,normal,approach guidance tracking,检测到侧偏后立即修正，并沿目标接地点下滑,,0.23166329735036323,0.025615568764159775,-0.14437905043902374,-0.011545711599067334,0.12,120.0,1942.5173567107868
1.1500000000000008,0.016666666666666666,139.49749262127492,2060.502507378725,-0.02583633280496491,flat,0.0,115.82387126982212,115.82387126982212,71.6400689139606,-175.3955153059616,3.00459355743251,1.5066624371307362,0.01454675705283422,False,0.0,0.23166329735036323,0.025615568764159775,-0.14437905043902374,-0.011545711599067334,0.12,approach,normal,approach guidance tracking,检测到侧偏后立即修正，并沿目标接地点下滑,,0.2317764130827854,0.025621098999452304,-0.14434784432116965,-0.011609820541231086,0.12,120.0,1940.502507378725
1.1666666666666674,0.016666666666666666,141.5120428066124,2058.4879571933875,-0.02532486106915717,flat,-3.2706509777287902e-09,115.7753115478082,115.77531154453754,71.62967361838245,-174.23403857164388,3.0007356684148285,1.5177042570306283,0.019744631755877283,False,0.0,0.2317764130827854,0.025621098999452304,-0.14434784432116965,-0.011609820541231086,0.12,approach,normal,approach guidance tracking,检测到侧偏后立即修正，并沿目标接地点下滑,,0.2318908933214215,0.025626811692170834,-0.14425493998752137,-0.01167364015524535,0.12,120.0,1938.4879571933875
1.183333333333334,0.016666666666666666,143.52629042425204,2056.4737095757478,-0.02463073356052966,flat,-3.270650977728748e-09,115.7270747269614,115.72707472369075,71.61916095515804,-173.07061374003888,2.9955357280107657,1.528756991908401,0.025275832740126156,False,0.0,0.2318908933214215,0.025626811692170834,-0.14425493998752137,-0.01167364015524535,0.12,approach,normal,approach guidance tracking,检测到侧偏后立即修正，并沿目标接地点下滑,,0.23200672670384492,0.02563270353881999,-0.1441042538131756,-0.011737542523982273,0.12,120.0,1936.4737095757478
1.2000000000000006,0.016666666666666666,145.54023209173565,2054.4597679082644,-0.023742290266499794,flat,3.270650977728701e-09,115.67916136652991,115.67916136980057,71.60853192528243,-171.9052271482173,2.9890707793275473,1.5398079525184243,0.031143966116997775,False,0.0,0.23200672670384492,0.02563270353881999,-0.1441042538131756,-0.011737542523982273,0.12,approach,normal,approach guidance tracking,检测到侧偏后立即修正，并沿目标接地点下滑,,0.2321239011493581,0.02563877413570209,-0.14389960214894482,-0.011801886162933145,0.12,120.0,1934.4597679082644
1.2166666666666672,0.016666666666666666,147.5538644666076,2052.4461355333924,-0.022647750740205665,flat,-3.2706509777286583e-09,115.6315720076783,115.63157200440764,71.59778758697765,-170.73794553316014,2.9814140432133303,1.5508450224150643,0.03735220570192661,False,0.0,0.2321239011493581,0.02563877413570209,-0.14389960214894482,-0.011801886162933145,0.12,approach,normal,approach guidance tracking,检测到侧偏后立即修正，并沿目标接地点下滑,,0.23224240389341816,0.025645025631945127,-0.14364461098521616,-0.011867008698999348,0.12,120.0,1932.4461355333924
1.2333333333333338,0.016666666666666666,149.5671842478162,2050.4328157521836,-0.021335229470336087,flat,3.270650977728604e-09,115.58430713833138,115.58430714160204,71.58692905399126,-169.56890875271137,2.9726351304154894,1.5618566787292134,0.0439033068207978,False,0.0,0.23224240389341816,0.025645025631945127,-0.14364461098521616,-0.011867008698999348,0.12,approach,normal,approach guidance tracking,检测到侧偏后立即修正，并沿目标接地点下滑,,0.23236222151436775,0.025651462471843675,-0.14334272630034925,-0.011933227868420491,0.12,120.0,1930.4328157521836
1.2500000000000004,0.016666666666666666,151.5801881770272,2048.419811822973,-0.019792750753086705,flat,-3.2706509777285657e-09,115.53736723541454,115.53736723214388,71.57595749348079,-168.39832236705084,2.9628002416862924,1.5728320069470423,0.05079961930498904,False,0.0,0.23236222151436775,0.025651462471843675,-0.14334272630034925,-0.011933227868420491,0.12,approach,normal,approach guidance tracking,检测到侧偏后立即修正，并沿目标接地点下滑,,0.23248333995120718,0.02565809118850378,-0.14299722381891744,-0.012000842457229658,0.12,120.0,1928.4198118229729
1.266666666666667,0.016666666666666666,153.5928730398423,2046.4071269601577,-0.018008263094741406,flat,3.270650977728517e-09,115.49075267509386,115.49075267836452,71.56487412379532,-167.22645051513703,2.9519723564633935,1.5837607103538403,0.058043099738112086,False,0.0,0.23248333995120718,0.02565809118850378,-0.14299722381891744,-0.012000842457229658,0.12,approach,normal,approach guidance tracking,检测到侧偏后立即修正，并沿目标接地点下滑,,0.23260574454636027,0.025664920111876443,-0.1426112182108627,-0.012070133187537834,0.12,120.0,1926.4071269601577
1.2833333333333337,0.016666666666666666,155.60523566692316,2044.3947643330769,-0.01596965317116407,flat,0.0,115.44446379691362,115.44446379691362,71.55368021213401,-166.05360911074942,2.9402114107923314,1.5946331146192148,0.06563532301748852,False,0.0,0.23260574454636027,0.025664920111876443,-0.1426112182108627,-0.012070133187537834,0.12,approach,normal,approach guidance tracking,检测到侧偏后立即修正，并沿目标接地点下滑,,0.23272942006221686,0.025671959197817833,-0.14218767176455252,-0.012141363553102023,0.12,120.0,1924.3947643330769
1.3000000000000003,0.016666666666666666,157.61727293502213,2042.3827270649779,-0.013664759368277987,flat,-3.270650977728428e-09,115.3985008071287,115.39850080385804,71.54237707219305,-164.88015937063108,2.9275744651135174,1.6054401679831214,0.073577493291057,False,0.0,0.23272942006221686,0.025671959197817833,-0.14218767176455252,-0.012141363553102023,0.12,approach,normal,approach guidance tracking,检测到侧偏后立即修正，并沿目标接地点下滑,,0.23285435072675967,0.02567921975197249,-0.14172940256455055,-0.012214780607428942,0.12,120.0,1922.3827270649779
1.3166666666666669,0.016666666666666666,159.62898176792234,2040.3710182320776,-0.011081384925482211,flat,0.0,115.35286381095648,115.35286381095648,71.5309660616586,-163.70650168397611,2.914115862495118,1.6161734374833823,0.08187045432777035,False,0.0,0.23285435072675967,0.02567921975197249,-0.14172940256455055,-0.012214780607428942,0.12,approach,normal,approach guidance tracking,检测到侧偏后立即修正，并沿目标接地点下滑,,0.23298052025783464,0.02568671425740182,-0.1412390922029072,-0.012290615707472521,0.12,120.0,1920.3710182320776
1.3333333333333335,0.016666666666666666,161.64035913728748,2038.3596408627125,-0.008207310701927229,flat,0.0,115.30755281075835,115.30755281075835,71.51944857971505,-162.53306982919753,2.8998873778552112,1.6268251016468704,0.09051469937667744,False,0.0,0.23298052025783464,0.02568671425740182,-0.1412390922029072,-0.012290615707472521,0.12,approach,normal,approach guidance tracking,检测到侧偏后立即修正，并沿目标接地点下滑,,0.23310791189337185,0.025694456188766937,-0.14071929305090988,-0.012369085215798036,0.12,120.0,1918.3596408627125
1.35,0.016666666666666666,163.65140206342463,2036.3485979365753,-0.0050303075836381625,flat,6.541301955456547e-09,115.26256768496366,115.26256769150496,71.5078260644666,-161.36032554091813,2.884938358681545,1.6373879400464513,0.09951038056685461,False,0.0,0.23310791189337185,0.025694456188766937,-0.14071929305090988,-0.012369085215798036,0.12,approach,normal,approach guidance tracking,检测到侧偏后立即修正，并沿目标接地点下滑,,0.23323650842611196,0.02570245982384367,-0.14017243511650793,-0.012450391163909051,0.12,120.0,1916.3485979365753
1.3666666666666667,0.016666666666666666,165.66210761596136,2034.3378923840387,-0.0015381485476552025,flat,0.0,115.21790817379951,115.21790817379951,71.496099990442,-160.18875342749197,2.869315857724879,1.6478553201053874,0.10885731789721374,False,0.0,0.23323650842611196,0.02570245982384367,-0.14017243511650793,-0.012450391163909051,0.12,approach,normal,approach guidance tracking,检测到侧偏后立即修正，并沿目标接地点下滑,,0.23336629223611255,0.02571074007111754,-0.1396008325110293,-0.01253472187926509,0.12,120.0,1914.3378923840387
1.3833333333333333,0.016666666666666666,167.67247291444298,2032.327527085557,0.002281379602357191,flat,0.0,115.173573885113,115.173573885113,71.48427186596474,-159.01885623683117,2.853064758111876,1.6582211815102954,0.1185550078620189,False,0.0,0.23336629223611255,0.02571074007111754,-0.1396008325110293,-0.01253472187926509,0.12,approach,normal,approach guidance tracking,检测到侧偏后立即修正，并沿目标接地点下滑,,0.23349724532125185,0.02571931232299168,-0.13900668954731704,-0.01262225257835777,0.12,120.0,1912.327527085557
1.4,0.016666666666666666,169.68249512884893,2030.317504871151,0.00644046481616917,flat,3.2706509777281194e-09,115.12956427083179,115.12956427410245,71.47234323066051,-157.85115046651836,2.836227891295993,1.668480018572687,0.12860263175473272,False,0.0,0.23349724532125185,0.02571931232299168,-0.13900668954731704,-0.01262225257835777,0.12,approach,normal,approach guidance tracking,检测到侧偏后立即修正，并沿目标接地点下滑,,0.23362934933137125,0.025728192298827255,-0.13839210649004707,-0.012713145928061933,0.12,120.0,1910.317504871151
1.4166666666666665,0.016666666666666666,171.69217148003546,2028.3078285199645,0.010951258681346714,flat,-3.2706509777280743e-09,115.0858786585851,115.08587865531445,71.4603156529115,-156.68616231175494,2.8188461482391762,1.6786268608579062,0.13899906368961953,False,0.0,0.23362934933137125,0.025728192298827255,-0.13839210649004707,-0.012713145928061933,0.12,approach,normal,approach guidance tracking,检测到侧偏后立即修正，并沿目标接地点下滑,,0.23376258559312796,0.025737395938499552,-0.13775908497770756,-0.01280755257733451,0.12,120.0,1908.3078285199645
1.4333333333333331,0.016666666666666666,173.7014992401058,2026.2985007598943,0.015825865601912684,flat,3.2706509777280172e-09,115.04251620963976,115.04251621291041,71.44819072733223,-155.52442394365576,2.8009585841936366,1.6886572523798546,0.1497428783773988,False,0.0,0.23376258559312796,0.025737395938499552,-0.13775908497770756,-0.01280755257733451,0.12,approach,normal,approach guidance tracking,检测到侧偏后立即修正，并沿目标接地点下滑,,0.23389693514785312,0.02574693925345002,-0.1371095331345452,-0.012905611661198713,0.12,120.0,1906.2985007598943
1.4499999999999997,0.016666666666666666,175.71047573271088,2024.2895242672892,0.0210763322625698,flat,3.2706509777279626e-09,114.99947596014306,114.99947596341372,71.4359700723791,-154.36647010856146,2.7826025174310627,1.6985672296382397,0.1608323586881657,False,0.0,0.23389693514785312,0.02574693925345002,-0.1371095331345452,-0.012905611661198713,0.12,approach,normal,approach guidance tracking,检测到侧偏后立即修正，并沿目标接地点下滑,,0.23403237877281036,0.025756838247952035,-0.13644527038968285,-0.013007451278823095,0.12,120.0,1904.2895242672892
1.4666666666666663,0.016666666666666666,177.71909833328695,2022.2809016667131,0.026714637370909323,flat,3.2706509777279072e-09,114.95675677106544,114.9567567743361,71.42365532791337,-153.2128350378981,2.763813622246479,1.7083532987553633,0.1722655030318251,False,0.0,0.23403237877281036,0.025756838247952035,-0.13644527038968285,-0.013007451278823095,0.12,approach,normal,approach guidance tracking,检测到侧偏后立即修正，并沿目标接地点下滑,,0.2341688970194487,0.0257671087845703,-0.1357680320196013,-0.013113188947384908,0.12,120.0,1902.2809016667131
1.483333333333333,0.016666666666666666,179.72736446923076,2020.2726355307693,0.03275268167106642,flat,3.2706509777278547e-09,114.91435737580821,114.91435737907887,71.41124815284667,-152.06404965729897,2.7446260165451886,1.7180124119490583,0.18404003258343954,False,0.0,0.2341688970194487,0.0257671087845703,-0.1357680320196013,-0.013113188947384908,0.12,approach,normal,approach guidance tracking,检测到侧偏后立即修正，并沿目标接地点下滑,,0.23430647023308443,0.025777766529487312,-0.13507947342923202,-0.013222932033294377,0.12,120.0,1900.2726355307693
1.4999999999999996,0.016666666666666666,181.7352716200169,2018.2647283799831,0.03920227822324012,flat,3.270650977727798e-09,114.87227635503575,114.87227635830641,71.39875022286942,-150.92063908269213,2.72507234430387,1.7275419435587154,0.1961533983781343,False,0.0,0.23430647023308443,0.025777766529487312,-0.13507947342923202,-0.013222932033294377,0.12,approach,normal,approach guidance tracking,检测到侧偏后立即修正，并沿目标接地点下滑,,0.23444507858469013,0.025788826854587353,-0.13438117418603146,-0.013336778162249959,0.12,120.0,1898.2647283799831
1.5166666666666662,0.016666666666666666,183.742817317261,2016.257182682739,0.04607514294434885,flat,3.2706509777277418e-09,114.83051213667557,114.83051213994622,71.38616322825465,-149.783120390377,2.7051838531808268,1.7369396658223741,0.20860278829760875,False,0.0,0.23444507858469013,0.025788826854587353,-0.13438117418603146,-0.013336778162249959,0.12,approach,normal,approach guidance tracking,检测到侧偏后立即修正，并沿目标接地点下滑,,0.234584702097248,0.025800304766404776,-0.13367464182059524,-0.013454815609495623,0.12,120.0,1896.257182682739
1.5333333333333328,0.016666666666666666,185.74999914473278,2014.2500008552672,0.05338288540585388,flat,-6.541301955455387e-09,114.78906303925781,114.78906303271651,71.37348887168359,-148.6520006477607,2.68499046753538,1.7462037245845932,0.2213851339678476,False,0.0,0.234584702097248,0.025800304766404776,-0.13367464182059524,-0.013454815609495623,0.12,approach,normal,approach guidance tracking,检测到侧偏后立即修正，并沿目标接地点下滑,,0.23472532066404073,0.02581221487460388,-0.13296131540661074,-0.013577123671558012,0.12,120.0,1894.2500008552672
1.5499999999999994,0.016666666666666666,187.75681473832088,2012.2431852616792,0.06113699988545255,flat,-3.270650977727633e-09,114.7479271697922,114.74792716652155,71.36072886621498,-147.52777519098908,2.6645208571024876,1.7553326150968869,0.2344971175852954,False,0.0,0.23472532066404073,0.02581221487460388,-0.13296131540661074,-0.013577123671558012,0.12,approach,normal,approach guidance tracking,检测到侧偏后立即修正，并沿目标接地点下滑,,0.23486691409140353,0.02582457126359318,-0.13224256893224348,-0.013703773020654337,0.12,120.0,1892.2431852616792
1.566666666666666,0.016666666666666666,189.76326178595457,2010.2367382140455,0.06934885666994837,flat,-3.2706509777275718e-09,114.70710257395342,114.70710257068276,71.34788493324864,-146.41092613533812,2.64380250155571,1.7643251580556214,0.2479351786865906,False,0.0,0.23486691409140353,0.02582457126359318,-0.13224256893224348,-0.013703773020654337,0.12,approach,normal,approach guidance tracking,检测到侧偏后立即修正，并沿目标接地点下滑,,0.23500946209612789,0.02583738755324354,-0.1315197144743941,-0.013834826042880504,0.12,120.0,1890.2367382140455
1.5833333333333326,0.016666666666666666,191.76933802748314,2008.2306619725168,0.07802969360710801,flat,-3.270650977727511e-09,114.66658713250592,114.66658712923527,71.3349588006568,-145.3019211045052,2.6228617511795327,1.7731804760061094,0.26169552087492626,False,0.0,0.23500946209612789,0.02583738755324354,-0.1315197144743941,-0.013834826042880504,0.12,approach,normal,approach guidance tracking,检测到侧偏后立即修正，并沿目标接地点下滑,,0.23515294434653003,0.025850676783868584,-0.13079400518665044,-0.013970337161213226,0.12,120.0,1888.2306619725168
1.5999999999999992,0.016666666666666666,193.77504125451873,2006.2249587454812,0.0871906079047798,flat,3.2706509777274498e-09,114.62637860373422,114.62637860700488,71.3219522009371,-144.20121216443937,2.6017238838607897,1.7818979702261626,0.27577411851423,False,0.0,0.23515294434653003,0.025850676783868584,-0.13079400518665044,-0.013970337161213226,0.12,approach,normal,approach guidance tracking,检测到侧偏后立即修正，并沿目标接地点下滑,,0.23529734047698,0.025864451412865447,-0.13006663811118674,-0.014110353144289229,0.12,120.0,1886.2249587454812
1.6166666666666658,0.016666666666666666,195.78036931024343,2004.2196306897565,0.09684254817591445,flat,0.0,114.5864746272564,114.5864746272564,71.3088679014344,-143.10923168849473,2.5804131585983217,1.7904772981878523,0.2901667234006108,False,0.0,0.23529734047698,0.025864451412865447,-0.13006663811118674,-0.014110353144289229,0.12,approach,normal,approach guidance tracking,检测到侧偏后立即修正，并沿目标接地点下滑,,0.2354426177245543,0.02587872301015654,-0.12933875682432638,-0.014254913401858698,0.12,120.0,1884.2196306897565
1.6333333333333324,0.016666666666666666,197.78532011819973,2002.2146798818003,0.10699630687540053,flat,3.2706509777273344e-09,114.54687271685168,114.54687272012234,71.29570959442032,-142.02639076555204,2.5589528662671817,1.798918393632289,0.30486888392903827,False,0.0,0.2354426177245543,0.02587872301015654,-0.12933875682432638,-0.014254913401858698,0.12,approach,normal,approach guidance tracking,检测到侧偏后立即修正，并沿目标接地点下滑,,0.2355887322491011,0.025893502222009045,-0.12861145416812042,-0.014404050457626263,0.12,120.0,1882.2146798818003
1.649999999999999,0.016666666666666666,199.78989170796052,2000.2101082920394,0.11766251343946252,flat,-9.811952933181831e-09,114.50757029516204,114.50757028535008,71.28247826437224,-140.95307291325938,2.537365377451086,1.8072214959227946,0.3198759669582138,False,0.0,0.2355887322491011,0.025893502222009045,-0.12861145416812042,-0.014404050457626263,0.12,approach,normal,approach guidance tracking,检测到侧偏后立即修正，并沿目标接地点下滑,,0.23573567271940413,0.02590879921270042,-0.12788577489119948,-0.014557790452126795,0.12,120.0,1880.2101082920394
1.6666666666666656,0.016666666666666666,201.7940821386212,1998.2059178613788,0.12885162766566005,flat,3.2706509777272116e-09,114.46856461510822,114.46856461837888,71.26917565815708,-139.88966191831616,2.5156953574100966,1.8153871798370884,0.3351833870819165,False,0.0,0.23573567271940413,0.02590879921270042,-0.12788577489119948,-0.014557790452126795,0.12,approach,normal,approach guidance tracking,检测到侧偏后立即修正，并沿目标接地点下滑,,0.23588341868584412,0.025924623907119353,-0.12716383389725533,-0.014716244792052776,0.12,120.0,1878.2059178613788
1.6833333333333322,0.016666666666666666,203.79788951982084,1996.2021104801793,0.14057394159263356,flat,3.2706509777271466e-09,114.42985292569563,114.42985292896628,71.25580351243238,-138.83652016559938,2.4939856702955434,1.8234161720446682,0.3507863129540493,False,0.0,0.23588341868584412,0.025924623907119353,-0.12716383389725533,-0.014716244792052776,0.12,approach,normal,approach guidance tracking,检测到侧偏后立即修正，并沿目标接地点下滑,,0.23603194982154208,0.025940985547432693,-0.1264476545816767,-0.014879514183026438,0.12,120.0,1876.2021104801793
1.6999999999999988,0.016666666666666666,205.8013120112373,1994.1986879887627,0.15283957100958526,flat,6.541301955454165e-09,114.39143230484457,114.39143231138587,71.24236355670519,-137.79399210025684,2.4722769767472714,1.8313093327792773,0.3666796720332133,False,0.0,0.23603194982154208,0.025940985547432693,-0.1264476545816767,-0.014879514183026438,0.12,approach,normal,approach guidance tracking,检测到侧偏后立即修正，并沿目标接地点下滑,,0.23618124591574824,0.025957892682866107,-0.12573914955744897,-0.015047687163147416,0.12,120.0,1874.1986879887627
1.7166666666666655,0.016666666666666666,207.8043478221858,1992.1956521778143,0.16565844714403233,flat,3.270650977727023e-09,114.35329976723358,114.35329977050424,71.22885751158599,-136.76240430735396,2.4506077840731217,1.8390676389778056,0.3828581610202828,False,0.0,0.23618124591574824,0.025957892682866107,-0.12573914955744897,-0.015047687163147416,0.12,approach,normal,approach guidance tracking,检测到侧偏后立即修正，并沿目标接地点下滑,,0.23633128687538693,0.025975353250081143,-0.1250401232042317,-0.015220840441926137,0.12,120.0,1872.1956521778143
1.733333333333332,0.016666666666666666,209.80699521118518,1990.1930047888147,0.17904030872590168,flat,0.0,114.31545221805573,114.31545221805573,71.21528708761294,-135.7420655069201,2.4290144962859803,1.8466921682629192,0.3993162562968904,False,0.0,0.23633128687538693,0.025975353250081143,-0.1250401232042317,-0.015220840441926137,0.12,approach,normal,approach guidance tracking,检测到侧偏后立即修正，并沿目标接地点下滑,,0.2364820527474935,0.025993374539806397,-0.12435227421242166,-0.015399039239065982,0.12,120.0,1870.1930047888147
1.7499999999999987,0.016666666666666666,211.809252485507,1988.190747514493,0.1929946944276376,flat,6.541301955453783e-09,114.27788649962874,114.27788650617003,71.20165398393782,-134.73326284173615,2.4075314646205395,1.8541840838363046,0.41604822436148914,False,0.0,0.2364820527474935,0.025993374539806397,-0.12435227421242166,-0.015399039239065982,0.12,approach,normal,approach guidance tracking,检测到侧偏后立即修正，并沿目标接地点下滑,,0.2366335237265977,0.026011963111716784,-0.12367719815200509,-0.015582337625408024,0.12,120.0,1868.190747514493
1.7666666666666653,0.016666666666666666,213.81111800070374,1986.1888819992962,0.20753093567974776,flat,0.0,114.24059937149286,114.24059937149286,71.1879598885112,-133.73626354538325,2.3861967903836225,1.8615446567985925,0.4330481943325452,False,0.0,0.2366335237265977,0.026011963111716784,-0.12367719815200509,-0.015582337625408024,0.12,approach,normal,approach guidance tracking,检测到侧偏后立即修正，并沿目标接地点下滑,,0.23678568015608809,0.02603112483359067,-0.12301666722774306,-0.015770801654125692,0.12,120.0,1866.1888819992962
1.7833333333333319,0.016666666666666666,215.81259016011597,1984.187409839884,0.22265815202939543,flat,3.270650977726761e-09,114.20358751759693,114.20358752086759,71.17420647741747,-132.75132620171664,2.365057231547358,1.868775281629203,0.45031021092625495,False,0.0,0.23678568015608809,0.02603112483359067,-0.12301666722774306,-0.015770801654125692,0.12,approach,normal,approach guidance tracking,检测到侧偏后立即修正，并沿目标接地点下滑,,0.23693850253490323,0.02605086524699521,-0.12237286668881996,-0.015964528795803182,0.12,120.0,1864.187409839884
1.7999999999999985,0.016666666666666666,217.81366741434178,1982.1863325856582,0.2383852483569053,flat,-3.2706509777267008e-09,114.16684755637482,114.16684755310416,71.16039541047104,-131.7786912245229,2.34415634168823,1.8758773849105617,0.4678280985381218,False,0.0,0.23693850253490323,0.02605086524699521,-0.12237286668881996,-0.015964528795803182,0.12,approach,normal,approach guidance tracking,检测到侧偏后立即修正，并沿目标接地点下滑,,0.2370919715685682,0.02607118926999636,-0.12174782313588693,-0.016163600824844006,0.12,120.0,1862.1863325856582
1.816666666666665,0.016666666666666666,219.81434826068545,1980.1856517393146,0.2547209073522261,flat,3.2706509777266334e-09,114.1303760227637,114.13037602603436,71.14652833211902,-130.81858292879411,2.323534546165575,1.8828524157496724,0.4855954749610883,False,0.0,0.2370919715685682,0.02607118926999636,-0.12174782313588693,-0.016163600824844006,0.12,approach,normal,approach guidance tracking,检测到侧偏后立即修正，并沿目标接地点下滑,,0.23724606816160446,0.02609210125024914,-0.1211434083785659,-0.016368084307197734,0.12,120.0,1860.1856517393146
1.8333333333333317,0.016666666666666666,221.81463124264315,1978.1853687573569,0.27167358248130685,flat,-3.2706509777265655e-09,114.09416942625478,114.09416942298412,71.13260687042863,-129.87120984937462,2.3032291908141302,1.8897018357204587,0.5036057646876523,False,0.0,0.23724606816160446,0.02609210125024914,-0.1211434083785659,-0.016368084307197734,0.12,approach,normal,approach guidance tracking,检测到侧偏后立即修正，并沿目标接地点下滑,,0.23740077341923674,0.026113605017068907,-0.12056134196879116,-0.016578030977889787,0.12,120.0,1858.1853687573569
1.8499999999999983,0.016666666666666666,223.81451494937224,1976.1854850506277,0.2892514914268643,flat,0.0,114.05822419375181,114.05822419375181,71.11863263628817,-128.93676506033202,2.2832745967489663,1.8964271096571115,0.5218522121845329,False,0.0,0.23740077341923674,0.026113605017068907,-0.12056134196879116,-0.016578030977889787,0.12,approach,normal,approach guidance tracking,检测到侧偏后立即修正，并沿目标接地点下滑,,0.2375560686672719,0.02613570385055479,-0.12000319402934806,-0.016793478141840932,0.12,120.0,1856.1854850506277
1.866666666666665,0.016666666666666666,225.81399801515,1974.18600198485,0.30746261000200303,flat,0.0,114.02253671362996,114.02253671362996,71.1046072227943,-128.01542653791265,2.263702120710915,1.9030296972766192,0.5403278951072462,False,0.0,0.2375560686672719,0.02613570385055479,-0.12000319402934806,-0.016793478141840932,0.12,approach,normal,approach guidance tracking,检测到侧偏后立即修正，并沿目标接地点下滑,,0.2377119354515258,0.026158400524944787,-0.11947038834958675,-0.017014449095312172,0.12,120.0,1854.18600198485
