t,dt,distance_ft,distance_to_runway_ft,cross_track_ft,terrain_type,terrain_elev_ft,h_agl_ft,h_sl_ft,vc_kts,vs_fpm,roll_deg,pitch_deg,yaw_deg,wow,runway_heading_deg,cmd_throttle,cmd_elevator,cmd_aileron,cmd_rudder,cmd_flaps,phase,mode,note,suggestion,alerts,throttle,elevator,aileron,rudder,flaps,target_td_past_threshold_ft,distance_to_td_ft
0.0,0.016666666666666666,0.0,2200.0,0.0,mixed,3.5290154597278582,119.99999999939241,123.52901545912027,72.00000000000111,-249.99881130358128,-0.13919377010865314,1.1982859888661184,8.155060815822293e-18,False,0.0,0.0,0.0,0.0,0.0,0.0,approach,normal,approach guidance tracking,检测到侧偏后立即修正，并沿目标接地点下滑,,0.2280214725636667,0.0256888142193997,0.006681300965215351,0.0005289363264128818,0.12,120.0,2080.0
0.016666666666666666,0.016666666666666666,2.024928898988467,2197.9750711010115,2.882135204251218e-19,mixed,3.7867053110894373,119.67288159236344,123.45958690345287,72.00007050150103,-249.9973286930506,-0.13919377085351456,1.1982915785975532,359.9999999999844,False,0.0,0.2280214725636667,0.0256888142193997,0.006681300965215351,0.0005289363264128818,0.12,approach,normal,approach guidance tracking,检测到侧偏后立即修正，并沿目标接地点下滑,,0.2280604058941085,0.025529637436227635,0.006681301001237837,0.0005289363294769819,0.12,120.0,2077.9750711010115
0.03333333333333333,0.016666666666666666,4.049859776629804,2195.95014022337,-5.504502796209421e-13,mixed,4.0419164880145555,119.34821412870994,123.39013061672449,72.00000086580474,-249.8727336273227,-0.13919373515310682,1.1982971710680894,359.9999999999622,False,0.0,0.2280604058941085,0.025529637436227635,0.006681301001237837,0.0005289363294769819,0.12,approach,normal,approach guidance tracking,检测到侧偏后立即修正，并沿目标接地点下滑,,0.22810057968243186,0.025368309603022866,0.006681299288004968,0.0005289361941493695,0.12,120.0,2075.95014022337
0.05,0.016666666666666666,6.074788691701719,2193.9252113082985,-1.886396530837945e-12,mixed,4.294550355765573,119.02620271941686,123.32075307518244,71.9998284732789,-249.67733115096576,-0.1346975626579951,1.1983162774077503,4.851461975315023e-05,False,0.0,0.22810057968243186,0.025368309603022866,0.006681299288004968,0.0005289361941493695,0.12,approach,normal,approach guidance tracking,检测到侧偏后立即修正，并沿目标接地点下滑,,0.2281415084814386,0.02520664572569821,0.006464644674963486,0.0005111230188059705,0.12,120.0,2073.9252113082985
0.06666666666666667,0.016666666666666666,8.09971274427963,2191.9002872557203,1.714582002236712e-06,mixed,4.544510147194618,118.70692344882036,123.25143359601498,71.99954944213113,-249.4126893086875,-0.12323487629047811,1.198362796404916,0.00016197088209751948,False,0.0,0.2281415084814386,0.02520664572569821,0.006464644674963486,0.0005111230188059705,0.12,approach,normal,approach guidance tracking,检测到侧偏后立即修正，并沿目标接地点下滑,,0.22818322520481296,0.025044751374128642,0.005912466975106693,0.00046586125209035177,0.12,120.0,2071.9002872557203
0.08333333333333333,0.016666666666666666,10.124628914991893,2189.8753710850083,7.4388685226508855e-06,mixed,4.791700894056887,118.39049617010441,123.1821970641613,71.99916002455856,-249.08234728858875,-0.10522345980229035,1.198430454495567,0.0003223467291125152,False,0.0,0.22818322520481296,0.025044751374128642,0.005912466975106693,0.00046586125209035177,0.12,approach,normal,approach guidance tracking,检测到侧偏后立即修正，并沿目标接地点下滑,,0.22822575328109915,0.024882826591062362,0.005045120212461964,0.000395006507443493,0.12,120.0,2069.8753710850083
0.09999999999999999,0.016666666666666666,12.14953408369986,2187.8504659163,1.8831008806623457e-05,mixed,5.036029469525639,118.07703153758662,123.11306100711226,71.99865636954425,-248.689672014424,-0.08105731069718136,1.1985149220967504,0.0005130481307963049,False,0.0,0.22822575328109915,0.024882826591062362,0.005045120212461964,0.000395006507443493,0.12,approach,normal,approach guidance tracking,检测到侧偏后立即修正，并沿目标接地点下滑,,0.228269119034157,0.02472105930600479,0.0038817950529222733,0.00030030322767853794,0.12,120.0,2067.8504659163
0.11666666666666665,0.016666666666666666,14.17442502515786,2185.8255749748423,3.696264993963762e-05,mixed,5.277404643789884,117.76663765664304,123.04404230043292,71.99803492005921,-248.2378614486993,-0.05110795414717548,1.1986140006565478,0.0007188579394990288,False,0.0,0.228269119034157,0.02472105930600479,0.0038817950529222733,0.00030030322767853794,0.12,approach,normal,approach guidance tracking,检测到侧偏后立即修正，并沿目标接地点下滑,,0.2283133457197915,0.02455963016209093,0.0024405825131501697,0.00018339039401684174,0.12,120.0,2065.8255749748423
0.13333333333333333,0.016666666666666666,16.199298415705908,2183.800701584294,6.236759818552434e-05,mixed,5.515737169087593,117.45941976398163,122.97515693306923,71.99728907766875,-247.72995501010965,-0.015725781210216727,1.1987274059711983,0.0009258813726911345,False,0.0,0.2283133457197915,0.02455963016209093,0.0024405825131501697,0.00018339039401684174,0.12,approach,normal,approach guidance tracking,检测到侧偏后立即修正，并沿目标接地点下滑,,0.22835849360796504,0.02439871318486124,0.0007385389034990096,4.5807380410271016e-05,0.12,120.0,2063.800701584294
0.15,0.016666666666666666,18.224150746317715,2181.7758492536823,9.508856072787077e-05,mixed,5.750939789514266,117.15548030351547,122.90642009302974,71.99641477476929,-247.16883925417727,0.024758699634565454,1.198856919544205,0.0011214653517411838,False,0.0,0.22835849360796504,0.02439871318486124,0.0007385389034990096,4.5807380410271016e-05,0.12,approach,normal,approach guidance tracking,检测到侧偏后立即修正，并沿目标接地点下滑,,0.22840459310311823,0.0242384750699292,-0.0012082529288287233,-0.00011100012744819436,0.12,120.0,2061.7758492536823
0.16666666666666666,0.016666666666666666,20.24897839224991,2179.75102160775,0.00013472104443458332,mixed,5.982927348950571,116.85491882588559,122.83784617483616,71.99540820811613,-246.55723895022118,0.07003368453046177,1.199006038425217,0.0012941657735784323,False,0.0,0.22840459310311823,0.0242384750699292,-0.0012082529288287233,-0.00011100012744819436,0.12,approach,normal,approach guidance tracking,检测到侧偏后立即修正，并沿目标接地点下滑,,0.2284516719592658,0.024079075211006218,-0.0033846267030428864,-0.0002856752088638658,0.12,120.0,2059.75102160775
0.18333333333333332,0.016666666666666666,22.27377761920718,2177.726222380793,0.00018045610345537953,mixed,6.211616787788236,116.55783205133979,122.76944883912802,71.99426536254245,-245.89771949594643,0.11980497134446566,1.199179717810006,0.0014337104156302443,False,0.0,0.2284516719592658,0.024079075211006218,-0.0033846267030428864,-0.0002856752088638658,0.12,approach,normal,approach guidance tracking,检测到侧偏后立即修正，并沿目标接地点下滑,,0.22849976098399202,0.023920665902400405,-0.005776279329813028,-0.0004769450034468785,0.12,120.0,2057.726222380793
0.19999999999999998,0.016666666666666666,24.298544576301914,2175.701455423698,0.00023112178075269084,mixed,6.436927237775089,116.26431382704162,122.70124106481671,71.99298051361366,-245.1926927052877,0.17379492586149742,1.1993841819076154,0.0015309574093386564,False,0.0,0.22849976098399202,0.023920665902400405,-0.005776279329813028,-0.0004769450034468785,0.12,approach,normal,approach guidance tracking,检测到侧偏后立即修正，并沿目标接地点下滑,,0.22854891201434951,0.023763392746628934,-0.008369720769932861,-0.0006836162011945227,0.12,120.0,2055.701455423698
0.21666666666666665,0.016666666666666666,26.323275247041227,2173.6767247529588,0.00028522308539079164,mixed,6.658780054717933,115.97445511671933,122.63323517143726,71.99155074053336,-244.4444114892774,0.23174151126604162,1.1996266762041794,0.0015778378104348764,False,0.0,0.22854891201434951,0.023763392746628934,-0.008369720769932861,-0.0006836162011945227,0.12,approach,normal,approach guidance tracking,检测到侧偏后立即修正，并沿目标接地点下滑,,0.22859914376431323,0.02360739370753663,-0.011152226648944188,-0.0009045705330528721,0.12,120.0,2053.6767247529588
0.2333333333333333,0.016666666666666666,28.3479655274167,2171.652034472583,0.0003409799475112066,mixed,6.877098887162467,115.68834399159049,122.56544287875295,71.98997258030215,-243.65497766886145,0.2933973780223198,1.1999153920509456,0.001567341211691569,False,0.0,0.22859914376431323,0.02360739370753663,-0.011152226648944188,-0.0009045705330528721,0.12,approach,normal,approach guidance tracking,检测到侧偏后立即修正，并沿目标接地点下滑,,0.2286504819757714,0.023452799924501545,-0.014111794504957436,-0.0011387611346077,0.12,120.0,2051.652034472583
0.24999999999999997,0.016666666666666666,30.372611209949444,2169.6273887900506,0.00039636466596479954,mixed,7.091809699284151,115.40606564844934,122.4978753477335,71.98824269583349,-242.82635210363117,0.3585290098063862,1.200259319954842,0.0014934818382803163,False,0.0,0.2286504819757714,0.023452799924501545,-0.014111794504957436,-0.0011387611346077,0.12,approach,normal,approach guidance tracking,检测到侧偏后立即修正，并沿目标接地点下滑,,0.22870295139803054,0.023299735934892495,-0.017237102387268652,-0.0013852088295044373,0.12,120.0,2049.6273887900506
0.26666666666666666,0.016666666666666666,32.397207986631244,2167.602792013369,0.0004491381606474634,mixed,7.302840800320513,115.12770240631163,122.43054320663214,71.9863578509396,-241.9603578057276,0.4268313366366564,1.2006675134655511,0.0013503792700880598,False,0.0,0.22870295139803054,0.023299735934892495,-0.017237102387268652,-0.0013852088295044373,0.12,approach,normal,approach guidance tracking,检测到侧偏后立即修正，并沿目标接地点下滑,,0.22875657608856034,0.02314831977238542,-0.020513394575517735,-0.0016426639064312627,0.12,120.0,2047.6027920133688
0.2833333333333333,0.016666666666666666,34.421751451704004,2165.578248548296,0.0004968537437079779,mixed,7.510122981934412,114.85333361375464,122.36345659568906,71.98431492447666,-241.05868191130125,0.49792985545259993,1.2011490100935363,0.0011324092323875977,False,0.0,0.22875657608856034,0.02314831977238542,-0.020513394575517735,-0.0016426639064312627,0.12,approach,normal,approach guidance tracking,检测到侧偏后立即修正，并沿目标接地点下滑,,0.22881137925990386,0.02299866296070383,-0.023922585991230254,-0.0019096164429494016,0.12,120.0,2045.578248548296
0.3,0.016666666666666666,36.4462371048924,2163.5537628951074,0.0005368662239262471,mixed,7.713589423362051,114.58303578474757,122.29662520810962,71.98211092600297,-240.1228863829083,0.5714621473304211,1.201713327166183,0.0008351770917898245,False,0.0,0.22881137925990386,0.02299866296070383,-0.023922585991230254,-0.0019096164429494016,0.12,approach,normal,approach guidance tracking,检测到侧偏后立即修正，并沿目标接地点下滑,,0.2288673830673001,0.022850870953597422,-0.02744719188988119,-0.002184620682456374,0.12,120.0,2043.5537628951074
0.31666666666666665,0.016666666666666666,38.470660354705686,2161.5293396452944,0.0005663754118042975,mixed,7.913175861482735,114.3168824695598,122.23005833104253,71.97974297743838,-239.15440781162135,0.6470780621223888,1.2023703625430244,0.00045548322172154283,False,0.0,0.2288673830673001,0.022850870953597422,-0.02744719188988119,-0.002184620682456374,0.12,approach,normal,approach guidance tracking,检测到侧偏后立即修正，并沿目标接地点下滑,,0.22892460885197574,0.022705043038388568,-0.03107033633392267,-0.002466295259802705,0.12,120.0,2041.5293396452944
0.3333333333333333,0.016666666666666666,40.49501652129231,2159.504983478708,0.0005824683993942212,mixed,8.108820535214548,114.05494431036531,122.16376484557986,71.97720831010429,-238.1545617703722,0.7244400829331041,1.2031302935664154,359.9999912878194,False,0.0,0.22892460885197574,0.022705043038388568,-0.03107033633392267,-0.002466295259802705,0.12,approach,normal,approach guidance tracking,检测到侧偏后立即修正，并沿目标接地点下滑,,0.22898307716662944,0.022561272515506985,-0.034775769282625296,-0.0027533241008361625,0.12,120.0,2039.5049834787078
0.35,0.016666666666666666,42.51930083928038,2157.4806991607197,0.0005821605943391605,mixed,8.300464270547621,113.79728902698994,122.09775329753757,71.97450426023366,-237.12454678403037,0.8032236345826729,1.204003483002367,359.99944167283695,False,0.0,0.22898307716662944,0.022561272515506985,-0.034775769282625296,-0.0027533241008361625,0.12,approach,normal,approach guidance tracking,检测到侧偏后立即修正，并沿目标接地点下滑,,0.22904280783185077,0.0224196468157573,-0.03854788093744365,-0.0030444570645627687,0.12,120.0,2037.4806991607197
0.36666666666666664,0.016666666666666666,44.54350846055534,2155.456491539445,0.0005624354050111815,mixed,8.48805051978844,113.54398140001875,122.0320319198072,71.97162826475939,-236.0654484474511,0.883117338678689,1.2050003918066903,359.99880680126694,False,0.0,0.22904280783185077,0.0224196468157573,-0.03854788093744365,-0.0030444570645627687,0.12,approach,normal,approach guidance tracking,检测到侧偏后立即修正，并沿目标接地点下滑,,0.22910381998967383,0.02228024762040531,-0.04237171347241381,-0.003338510341388089,0.12,120.0,2035.4564915394449
0.3833333333333333,0.016666666666666666,46.56763445697676,2153.432365543023,0.0005202824821460124,mixed,8.671525358285976,113.29508328152053,121.96660863980651,71.96857785726979,-234.97824365110228,0.9638232172864715,1.2061314985847533,359.9980878740331,False,0.0,0.22910381998967383,0.02228024762040531,-0.04237171347241381,-0.003338510341388089,0.12,approach,normal,approach guidance tracking,检测到侧偏后立即修正，并沿目标接地点下滑,,0.2291661321501556,0.02214315100459371,-0.046232970248956964,-0.003634366618667292,0.12,120.0,2033.432365543023
0.39999999999999997,0.016666666666666666,48.59167382303378,2151.408326176966,0.00045273443127682013,mixed,8.850837562923733,113.05065359851211,121.90149116143584,71.96535066414458,-233.86380489609692,1.0450568472454613,1.2074072255912867,359.99728708474635,False,0.0,0.2291661321501556,0.02214315100459371,-0.046232970248956964,-0.003634366618667292,0.12,approach,normal,approach guidance tracking,检测到侧偏后立即修正，并沿目标接地点下滑,,0.22922976223709549,0.02200842757839016,-0.05011802261746914,-0.003930975025159232,0.12,120.0,2031.408326176966
0.41666666666666663,0.016666666666666666,50.61562147843867,2149.3843785215613,0.0003569019195010089,mixed,9.025938589222235,112.81074834232827,121.8366869315505,71.96194440093205,-232.72290468244708,1.12654746722554,1.2088378711030534,359.9964075725974,False,0.0,0.22922976223709549,0.02200842757839016,-0.05011802261746914,-0.003930975025159232,0.12,approach,normal,approach guidance tracking,检测到侧偏后立即修正，并沿目标接地点下滑,,0.22929472763339803,0.021876142620018066,-0.054013914410522196,-0.004227350866337209,0.12,120.0,2029.3843785215613
0.4333333333333333,0.016666666666666666,52.63947227066049,2147.3605277293395,0.00023000710976421292,mixed,9.19678264656059,112.57542054927953,121.77220319584012,71.95835686885628,-231.55621995611378,1.208038039653216,1.210433547983606,359.9954533736594,False,0.0,0.22929472763339803,0.021876142620018066,-0.054013914410522196,-0.004227350866337209,0.12,approach,normal,approach guidance tracking,检测到侧偏后立即修正，并沿目标接地点下滑,,0.22936104522644432,0.021746356204700668,-0.05790836423431594,-0.004522575162683222,0.12,120.0,2027.3605277293395
0.44999999999999996,0.016666666666666666,54.663220977397515,2145.3367790226025,6.941536556748327e-05,mixed,9.363326714526758,112.34472033273066,121.70804704725742,71.95458595147751,-230.36433660239098,1.2892852696645976,1.2122041282491653,359.99442937087775,False,0.0,0.22936104522644432,0.021746356204700668,-0.05790836423431594,-0.004522575162683222,0.12,approach,normal,approach guidance tracking,检测到侧偏后立即修正，并沿目标接地点下滑,,0.22942873144236994,0.021619123372009996,-0.06178976566642299,-0.004815794003257343,0.12,120.0,2025.3367790226025
0.4666666666666666,0.016666666666666666,56.68686230898825,2143.313137691012,-0.0001273348211440281,mixed,9.525530529832148,112.11869488128492,121.64422541111708,71.9506296115635,-229.14775397418796,1.3700595832603277,1.2141591934353522,359.9933412430183,False,0.0,0.22942873144236994,0.021619123372009996,-0.06178976566642299,-0.004815794003257343,0.12,approach,normal,approach guidance tracking,检测到侧偏后立即修正，并沿目标接地点下滑,,0.2294978022839126,0.02149449426991647,-0.0656471854687101,-0.005106217726842278,0.12,120.0,2023.313137691012
0.4833333333333333,0.016666666666666666,58.71039091076269,2141.2896090892373,-0.00036250371646154246,mixed,9.68335664845087,111.89738843762301,121.58074508607388,71.94648588810412,-227.9068894445372,1.4501450668477074,1.2163079905559904,359.99219541284475,False,0.0,0.2294978022839126,0.02149449426991647,-0.0656471854687101,-0.005106217726842278,0.12,approach,normal,approach guidance tracking,检测到侧偏后立即修正，并沿目标接地点下滑,,0.22956827337002403,0.021372514285682726,-0.06947035992480824,-0.005393119942976092,0.12,120.0,2021.2896090892373
0.49999999999999994,0.016666666666666666,60.73380136533375,2139.266198634666,-0.0006381240732995251,mixed,9.83677046197037,111.6808423082294,121.51761277019978,71.94215289347588,-226.6420829735651,1.5293393703575429,1.2186593934389407,359.9909989947863,False,0.0,0.22956827337002403,0.021372514285682726,-0.06947035992480824,-0.005393119942976092,0.12,approach,normal,approach guidance tracking,检测到侧偏后立即修正，并沿目标接地点下滑,,0.22964015996812343,0.021253224199453843,-0.07324968941151765,-0.005675836405080008,0.12,120.0,2019.2661986346661
0.5166666666666666,0.016666666666666666,62.7570881948295,2137.2429118051705,-0.0009559767211025824,mixed,9.98574020085945,111.4690948787509,121.45483507961035,71.93762437658793,-225.3536344887504,1.6074535761183413,1.2212218692182144,359.9897597423474,False,0.0,0.22964015996812343,0.021253224199453843,-0.07324968941151765,-0.005675836405080008,0.12,approach,normal,approach guidance tracking,检测到侧偏后立即修正，并沿目标接地点下滑,,0.22971353023355928,0.021136662144815504,-0.07697623131318244,-0.005953763747739844,0.12,120.0,2017.2429118051705
0.5333333333333333,0.016666666666666666,64.78024573836136,2135.2197542616386,-0.0013175680037991677,mixed,10.130236941007128,111.26218159255649,121.39241853356361,71.93289745040035,-224.041750709094,1.6843120336763344,1.224003938771945,359.9884859675523,False,0.0,0.22971353023355928,0.021136662144815504,-0.07697623131318244,-0.005953763747739844,0.12,approach,normal,approach guidance tracking,检测到侧偏后立即修正，并沿目标接地点下滑,,0.229788412484406,0.021022860577163,-0.08064169080934994,-0.0062263576732510964,0.12,120.0,2015.2197542616386
0.55,0.016666666666666666,66.80326824646461,2133.1967317535355,-0.001724110105885195,mixed,10.270234623344136,111.06013500562172,121.33036962896585,71.92797131659412,-222.706553430928,1.7597521673364536,1.2270139275227654,359.98718650273594,False,0.0,0.229788412484406,0.021022860577163,-0.08064169080934994,-0.0062263576732510964,0.12,approach,normal,approach guidance tracking,检测到侧偏后立即修正，并沿目标接地点下滑,,0.22986481049465285,0.02091184679740403,-0.08423841107091852,-0.006493131666811703,0.12,120.0,2013.1967317535355
0.5666666666666668,0.016666666666666666,68.82614993984858,2131.1738500601514,-0.0021765027436660917,mixed,10.405710106170861,110.86298473420075,121.26869484037161,71.9228443663681,-221.348106336028,1.8336242569764991,1.230259635934027,359.9858706657662,False,0.0,0.22986481049465285,0.02091184679740403,-0.08423841107091852,-0.006493131666811703,0.12,approach,normal,approach guidance tracking,检测到侧偏后立即修正，并沿目标接地点下滑,,0.2299427382935065,0.020803644265175524,-0.08775936222614204,-0.006753655660259814,0.12,120.0,2011.1738500601514
0.5833333333333335,0.016666666666666666,70.8488849868504,2129.1511150131496,-0.002675316085569237,mixed,10.53664311609579,110.67075750761317,121.20740062370896,71.91751505495478,-219.96641515499184,1.905791192324456,1.2337483208716098,359.98454820827624,False,0.0,0.2299427382935065,0.020803644265175524,-0.08775936222614204,-0.006753655660259814,0.12,approach,normal,approach guidance tracking,检测到侧偏后立即修正，并沿目标接地点下滑,,0.23002220966191167,0.02069827249269133,-0.09119812875337653,-0.007007554338890924,0.12,120.0,2009.1511150131496
0.6000000000000002,0.016666666666666666,72.87146750549158,2127.1285324945084,-0.003220775519212152,mixed,10.663016287281094,110.48347714389962,121.14649343118072,71.91198189883687,-218.56143229990266,1.9761282035004026,1.2374866842259082,359.9832292647842,False,0.0,0.23002220966191167,0.02069827249269133,-0.09119812875337653,-0.007007554338890924,0.12,approach,normal,approach guidance tracking,检测到侧偏后立即修正，并沿目标接地点下滑,,0.2301032381703156,0.020595747175988263,-0.09454889574099808,-0.0072545053695453115,0.12,120.0,2007.1285324945084
0.6166666666666669,0.016666666666666666,74.8938915654599,2125.10610843454,-0.0038127482300769834,mixed,10.784815177794083,110.30116457817377,121.08597975596786,71.90624347359335,-217.13306177062697,2.0445225698056375,1.2414808656470204,359.981924302798,False,0.0,0.2301032381703156,0.020595747175988263,-0.09454889574099808,-0.0072545053695453115,0.12,approach,normal,approach guidance tracking,检测到侧偏后立即修正，并沿目标接地点下滑,,0.23018583719939326,0.020496080372772535,-0.0978064341115158,-0.007494237559001443,0.12,120.0,2005.1061084345401
0.6333333333333336,0.016666666666666666,76.91615119003208,2123.083848809968,-0.004450731556979528,mixed,10.902028243440416,110.12383786271212,121.02586610615253,71.90029841197295,-215.68116395794934,2.1108733087525335,1.245736439167852,359.9806440740687,False,0.0,0.23018583719939326,0.020496080372772535,-0.0978064341115158,-0.007494237559001443,0.12,approach,normal,approach guidance tracking,检测到侧偏后立即修正，并沿目标接地点下滑,,0.2302700199631307,0.020399280656586704,-0.10096608490855559,-0.007726528952733459,0.12,120.0,2003.083848809968
0.6500000000000004,0.016666666666666666,78.9382403579421,2121.061759642058,-0.005133843083668929,mixed,11.014646877010147,109.95151216868611,120.96615904569626,71.89414540201976,-214.20556034533573,2.1750908472862314,1.250258413436423,359.9793995671386,False,0.0,0.2302700199631307,0.020399280656586704,-0.10096608490855559,-0.007726528952733459,0.12,approach,normal,approach guidance tracking,检测到侧偏后立即修正，并沿目标接地点下滑,,0.23035579953098928,0.02030535326891388,-0.10402374274309274,-0.007951204883683224,0.12,120.0,2001.061759642058
0.6666666666666671,0.016666666666666666,80.96015300519461,2119.0398469948054,-0.005860812420640483,mixed,11.122665333051721,109.78419985766288,120.9068651907146,71.88778318541269,-212.70603809871167,2.237096677098912,1.2550512352848537,359.97820196131084,False,0.0,0.23035579953098928,0.02030535326891388,-0.10402374274309274,-0.007951204883683224,0.12,approach,normal,approach guidance tracking,检测到侧偏后立即修正，并沿目标接地点下滑,,0.2304431888349439,0.02021430031790205,-0.10697583849258009,-0.008168135980217893,0.12,120.0,1999.0398469948054
0.6833333333333338,0.016666666666666666,82.98188302682838,2117.018116973172,-0.006629974626687894,mixed,11.226080835801724,109.62191037740075,120.84799121320248,71.88121055590783,-211.18235453422716,2.2968229958841597,1.2601187963663576,359.97706258215317,False,0.0,0.2304431888349439,0.02021430031790205,-0.10697583849258009,-0.008168135980217893,0.12,approach,normal,approach guidance tracking,检测到侧偏后立即修正，并沿目标接地点下滑,,0.23053220070691555,0.020126120846663993,-0.10981932134383827,-0.00837723614203062,0.12,120.0,1997.0181169731718
0.7000000000000005,0.016666666666666666,85.00342427863136,2114.9965757213686,-0.0074392652156755265,mixed,11.324893477794,109.46465039304249,120.7895438708365,71.87442635786964,-209.63424145435326,2.3542123363229184,1.2654644425961927,359.9759928586316,False,0.0,0.23053220070691555,0.020126120846663993,-0.10981932134383827,-0.00837723614203062,0.12,approach,normal,approach guidance tracking,检测到侧偏后立即修正，并沿目标接地点下滑,,0.23062284787276582,0.02004081106683967,-0.11255164026761937,-0.008578460492285831,0.12,120.0,1994.9965757213686
0.7166666666666672,0.016666666666666666,87.0247705788087,2112.975229421191,-0.008286216690553147,mixed,11.419106255835652,109.31242372506225,120.7315299808979,71.8674294849963,-208.06140934312208,2.4092171845340946,1.271090986137722,359.9750042819533,False,0.0,0.23062284787276582,0.02004081106683967,-0.11255164026761937,-0.008578460492285831,0.12,approach,normal,approach guidance tracking,检测到侧偏后立即修正，并沿目标接地点下滑,,0.23071514297874665,0.019958364448484048,-0.1151707250096752,-0.008771803313838774,0.12,120.0,1992.9752294211912
0.733333333333334,0.016666666666666666,89.04591570960855,2110.9540842903916,-0.009167956543780262,mixed,11.508725051382477,109.16523139869244,120.67395645007491,71.86021887906975,-206.4635514115724,2.4617995896623417,1.2770007196807032,359.974108366184,False,0.0,0.23071514297874665,0.019958364448484048,-0.1151707250096752,-0.008771803313838774,0.12,approach,normal,approach guidance tracking,检测到侧偏后立即修正，并沿目标接地点下滑,,0.23080909859758725,0.019878771885426052,-0.11767496668004174,-0.008957295976933087,0.12,120.0,1990.9540842903916
0.7500000000000007,0.016666666666666666,91.06685341890544,2108.9331465810947,-0.010081206660941805,mixed,11.5937586534326,109.02307163593126,120.61683028936386,71.85290158284334,-204.93850205234045,2.511930766213253,1.283195432765507,359.97331661069074,False,0.0,0.23080909859758725,0.019878771885426052,-0.11767496668004174,-0.008957295976933087,0.12,approach,normal,approach guidance tracking,检测到侧偏后立即修正，并沿目标接地点下滑,,0.23090343059526663,0.019805144413890398,-0.12006319801899969,-0.009135004865310591,0.12,120.0,1988.9331465810947
0.7666666666666674,0.016666666666666666,93.08758046055905,2106.912419539441,-0.011022285477729201,mixed,11.674218778149465,108.88588753284397,120.56010631099343,71.84546981194521,-203.46855081662775,2.559577313798759,1.2896910645835173,359.97264170687913,False,0.0,0.23090343059526663,0.019805144413890398,-0.12006319801899969,-0.009135004865310591,0.12,approach,normal,approach guidance tracking,检测到侧偏后立即修正，并沿目标接地点下滑,,0.23099824265757773,0.019736875623389726,-0.12233405278691871,-0.009304997110144514,0.12,120.0,1986.912419539441
0.7833333333333341,0.016666666666666666,95.10809335369204,2104.891906646308,-0.011987064774809205,mixed,11.750119996907857,108.75366505449757,120.50378505140543,71.83791443006234,-202.0412256761509,2.604712829702717,1.2964935927153278,359.97209614560734,False,0.0,0.23099824265757773,0.019736875623389726,-0.12233405278691871,-0.009304997110144514,0.12,approach,normal,approach guidance tracking,检测到侧偏后立即修正，并沿目标接地点下滑,,0.23109364697940096,0.01967355777371247,-0.12448649931090615,-0.009467363872205588,0.12,120.0,1984.8919066463081
0.8000000000000008,0.016666666666666666,97.12838835221395,2102.8716116477863,-0.012970976953325166,mixed,11.821479677422175,108.62637612296807,120.44785580039024,71.83023522096035,-200.6527245693189,2.647320683956625,1.303603571125763,359.9716921725187,False,0.0,0.23109364697940096,0.01967355777371247,-0.12448649931090615,-0.009467363872205588,0.12,approach,normal,approach guidance tracking,检测到侧偏后立即修正，并沿目标接地点下滑,,0.23118965124491375,0.019615048903409024,-0.12651997288166544,-0.009622230209862572,0.12,120.0,1982.8716116477863
0.8166666666666675,0.016666666666666666,99.14846169976825,2100.851538300232,-0.013969024034308174,mixed,11.888317944498734,108.5039893407207,120.39230728521943,71.82243204361485,-199.29911925723243,2.687393386999245,1.311018967114974,359.97144184834906,False,0.0,0.23118965124491375,0.019615048903409024,-0.12651997288166544,-0.009622230209862572,0.12,approach,normal,approach guidance tracking,检测到侧偏后立即修正，并沿目标接地点下滑,,0.23128626283340006,0.01956120059856165,-0.12843434640007081,-0.009769753571798706,0.12,120.0,1980.8515383002318
0.8333333333333343,0.016666666666666666,101.16830963375516,2098.831690366245,-0.014975784422462729,mixed,11.95065771928328,108.38647266337377,120.33713038265705,71.81450475292323,-197.97670700199916,2.7249320853681653,1.3187353818204788,359.97135701346474,False,0.0,0.23128626283340006,0.01956120059856165,-0.12843434640007081,-0.009769753571798706,0.12,approach,normal,approach guidance tracking,检测到侧偏后立即修正，并沿目标接地点下滑,,0.23138348928957425,0.019511871185216197,-0.13022990552511482,-0.009910121341947662,0.12,120.0,1978.8316903662449
0.850000000000001,0.016666666666666666,103.1879283870051,2096.8120716129947,-0.01598542092340228,mixed,12.008524660389812,108.27379225530109,120.2823169156909,71.80645321362597,-196.68200174241377,2.7599460546183456,1.3267463141882085,359.9714492582669,False,0.0,0.23138348928957425,0.019511871185216197,-0.13022990552511482,-0.009910121341947662,0.12,approach,normal,approach guidance tracking,检测到侧偏后立即修正，并沿目标接地点下滑,,0.23148133836250032,0.01946692462166848,-0.13190732378410006,-0.010043548460629614,0.12,120.0,1976.8120716129947
0.8666666666666677,0.016666666666666666,105.20731418968936,2094.7926858103106,-0.016991689807705778,mixed,12.061947144277022,108.16591249062903,120.22785963490605,71.79827730850327,-195.41173570507084,2.792452195829758,1.335043409437478,359.971729896996,False,0.0,0.23148133836250032,0.01946692462166848,-0.13190732378410006,-0.010043548460629614,0.12,approach,normal,approach guidance tracking,检测到侧偏后立即修正，并沿目标接地点下滑,,0.23157981790703547,0.01942623055028298,-0.13346763790884245,-0.010170275109285523,0.12,120.0,1974.7926858103106
0.8833333333333344,0.016666666666666666,107.22646327131804,2092.773536728682,-0.017987950800872635,mixed,12.110956235812909,108.06279596032023,120.17375219613314,71.78997694592124,-194.162859101475,2.8224745371004043,1.343616694314814,359.97220994476396,False,0.0,0.23157981790703547,0.01942623055028298,-0.13346763790884245,-0.010170275109285523,0.12,approach,normal,approach guidance tracking,检测到侧偏后立即修正，并沿目标接地点下滑,,0.23167893579198176,0.019389664292508463,-0.13491222346249646,-0.010290564461640075,0.12,120.0,1972.7735367286818
0.9000000000000011,0.016666666666666666,109.24537186281553,2090.7546281371847,-0.018967177884459008,mixed,12.155585675192906,107.96440336604611,120.11998904123902,71.78155206673418,-192.9325385091655,2.850043741457001,1.35245479893924,359.97290009754204,False,0.0,0.23167893579198176,0.019389664292508463,-0.13491222346249646,-0.010290564461640075,0.12,approach,normal,approach guidance tracking,检测到侧偏后立即修正，并沿目标接地点下滑,,0.23177869983634178,0.019357106720334676,-0.13624277082161707,-0.01040470050278271,0.12,120.0,1970.7546281371847
0.9166666666666679,0.016666666666666666,111.26403619866306,2088.7359638013368,-0.01992197080327467,mixed,12.195871825610267,107.87069357996715,120.06656540557742,71.77300265025508,-191.71815406823333,2.8751966224810293,1.361545165223731,359.97381071484574,False,0.0,0.23177869983634178,0.019357106720334676,-0.13624277082161707,-0.01040470050278271,0.12,approach,normal,approach guidance tracking,检测到侧偏后立即修正，并沿目标接地点下滑,,0.23187911772689243,0.01932844420941226,-0.13746126157176808,-0.010512985917310739,0.12,120.0,1968.7359638013368
0.9333333333333346,0.016666666666666666,113.2824525190896,2086.7175474809105,-0.020844567182697064,mixed,12.231853640550533,107.7816235396026,120.01347718015313,71.7643287197642,-190.5172956325398,2.897975668825215,1.37087424194205,359.97495180486675,False,0.0,0.23187911772689243,0.01932844420941226,-0.13746126157176808,-0.010512985917310739,0.12,approach,normal,approach guidance tracking,检测到侧偏后立即修正，并沿目标接地点下滑,,0.23198019697098468,0.01930356844002755,-0.13856994536923078,-0.010615740047354343,0.12,120.0,1966.7175474809105
0.9500000000000013,0.016666666666666666,115.30061707230465,2084.6993829276953,-0.02172685516899044,mixed,12.263572670333712,107.6971482561895,119.96072092652321,71.75553034708163,-189.32775800546716,2.918428578678353,1.3804276665865411,359.9763330118155,False,0.0,0.23198019697098468,0.01930356844002755,-0.13856994536923078,-0.010615740047354343,0.12,approach,normal,approach guidance tracking,检测到侧偏后立即修正，并沿目标接地点下滑,,0.2320819448401467,0.019282376250618703,-0.13957131731592134,-0.01071329692104101,0.12,120.0,1964.6993829276953
0.966666666666668,0.016666666666666666,117.31852611675261,2082.6814738832472,-0.022560386513884107,mixed,12.291072963996228,107.61722082711906,119.90829379111528,71.74660765667404,-188.1475353825024,2.9366078051249107,1.390190434229308,359.97796360525354,False,0.0,0.2320819448401467,0.019282376250618703,-0.13957131731592134,-0.01071329692104101,0.12,approach,normal,approach guidance tracking,检测到侧偏后立即修正，并沿目标接地点下滑,,0.23218436831854375,0.019264769468892193,-0.14046809588951018,-0.010806003351763804,0.12,120.0,1962.6814738832472
0.9833333333333347,0.016666666666666666,119.33617592338143,2080.6638240766188,-0.023336390032480045,mixed,12.314401085645116,107.54179234135135,119.85619342699647,71.7375608291052,-186.97481511422896,2.9525701132399425,1.4001470536567988,359.9798524712096,False,0.0,0.23218436831854375,0.019264769468892193,-0.14046809588951018,-0.010806003351763804,0.12,approach,normal,approach guidance tracking,检测到侧偏后立即修正，并沿目标接地点下滑,,0.23228747407857547,0.01925065464421781,-0.14126320146586316,-0.010894217108423254,0.12,120.0,1960.6638240766188
1.0000000000000013,0.016666666666666666,121.35356277791196,2078.646437222088,-0.024045785370859427,mixed,12.333606039234775,107.4708119434627,119.80441798269749,71.7283901038306,-185.80797089585033,2.9663761496593675,1.410281691097568,359.98200810488987,False,0.0,0.23228747407857547,0.01925065464421781,-0.14126320146586316,-0.010894217108423254,0.12,approach,normal,approach guidance tracking,检测到侧偏后立即修正，并沿目标接地点下滑,,0.2323912684357905,0.019239942875970965,-0.1419597354663665,-0.010978305156682808,0.12,120.0,1958.646437222088
1.016666666666668,0.016666666666666666,123.37068298309444,2076.6293170169056,-0.02467919702644985,mixed,12.348739235861864,107.40422680302086,119.75296603888273,71.71909578150773,-184.64555548169008,2.9780900252705838,1.4205783019051454,359.9844386048111,False,0.0,0.2323912684357905,0.019239942875970965,-0.1419597354663665,-0.010978305156682808,0.12,approach,normal,approach guidance tracking,检测到侧偏后立即修正，并沿目标接地点下滑,,0.2324957573266544,0.01923254955856485,-0.14256096015839667,-0.011058641971168105,0.12,120.0,1956.6293170169056
1.0333333333333345,0.016666666666666666,125.38753286094301,2074.612467139057,-0.025226968570301322,mixed,12.359854470872177,107.34198206669758,119.70183653756976,71.70967822581864,-183.48629301551404,2.9877789115784257,1.4310207505931183,359.98715166820074,False,0.0,0.2324957573266544,0.01923254955856485,-0.14256096015839667,-0.011058641971168105,0.12,approach,normal,approach guidance tracking,检测到侧偏后立即修正，并沿目标接地点下滑,,0.2326009462952776,0.019228394101816648,-0.14307027913313575,-0.011135607918438789,0.12,120.0,1954.6124671390571
1.0500000000000012,0.016666666666666666,127.40410875493866,2072.5958912450615,-0.02567917702592385,mixed,12.367007864990788,107.28402090223734,119.65102876722813,71.70013786468581,-182.32907106059994,2.9955126512166417,1.4415929196487356,359.9901545875248,False,0.0,0.2326009462952776,0.019228394101816648,-0.14307027913313575,-0.011135607918438789,0.12,approach,normal,approach guidance tracking,检测到侧偏后立即修正，并沿目标接地点下滑,,0.2327068404708895,0.019227399707919455,-0.14349121848110266,-0.011209587710469086,0.12,120.0,1952.5958912450615
1.0666666666666678,0.016666666666666666,129.42040703218754,2070.5795929678125,-0.02602564736429068,mixed,12.37025780545218,107.23028448654668,119.60054229199886,71.69047519118898,-181.17293240663938,3.0013633829950717,1.4522788075749709,359.9934542480202,False,0.0,0.2327068404708895,0.019227399707919455,-0.14349121848110266,-0.011209587710469086,0.12,approach,normal,approach guidance tracking,检测到侧偏后立即修正，并沿目标接地点下滑,,0.2328134445589609,0.019229493101065386,-0.14382740868220414,-0.01128096892832019,0.12,120.0,1950.5795929678125
1.0833333333333344,0.016666666666666666,131.4364240855303,2068.5635759144698,-0.026255967078964975,mixed,12.369664903483685,107.18071202958436,119.55037693306804,71.68069076390839,-180.0170667238578,3.005405181797472,1.4630626166293152,359.99705712612445,False,0.0,0.2328134445589609,0.019229493101065386,-0.14382740868220414,-0.01128096892832019,0.12,approach,normal,approach guidance tracking,检测到侧偏后立即修正，并沿目标接地点下滑,,0.232920762832764,0.01923460427802877,-0.14408256722373003,-0.011350140615618117,0.12,120.0,1948.5635759144698
1.100000000000001,0.016666666666666666,133.45215633558982,2066.5478436644103,-0.026359500809138754,mixed,12.36529198122451,107.13524071293642,119.50053269416094,71.67078520702924,-178.8608021287075,3.0077137135743017,1.4739288307414358,0.0009692887065207165,False,0.0,0.232920762832764,0.01923460427802877,-0.14408256722373003,-0.011350140615618117,0.12,approach,normal,approach guidance tracking,检测到侧偏后立即修正，并沿目标接地点下滑,,0.23302879914315652,0.01924266619450848,-0.1442604819565313,-0.011417491941371018,0.12,120.0,1946.5478436644103
1.1166666666666676,0.016666666666666666,135.4676002327547,2064.5323997672454,-0.02632540498175571,mixed,12.35720397360858,107.09380580655996,119.45100978016853,71.66075920992257,-177.70359671931763,3.0083659056085525,1.4848622841015569,0.005196393019961254,False,0.0,0.23302879914315652,0.01924266619450848,-0.1442604819565313,-0.011417491941371018,0.12,approach,normal,approach guidance tracking,检测到侧偏后立即修正，并沿目标接地点下滑,,0.2331375569025787,0.01925361457884797,-0.14436499519668303,-0.011483410931630163,0.12,120.0,1944.5323997672454
1.1333333333333342,0.016666666666666666,137.4827522590873,2062.517247740913,-0.02614264244674126,mixed,12.345467892389358,107.05634061162584,119.40180850401521,71.65061352656463,-176.5450301335153,3.0074396321707253,1.4958482209172586,0.009743687307172857,False,0.0,0.2331375569025787,0.01925361457884797,-0.14436499519668303,-0.011483410931630163,0.12,approach,normal,approach guidance tracking,检测到侧偏后立即修正，并沿目标接地点下滑,,0.233247039102291,0.019267387621270816,-0.1443999885771184,-0.011548283269409609,0.12,120.0,1942.5172477409128
1.1500000000000008,0.016666666666666666,139.49760893015545,2060.5023910698446,-0.025799997081866713,mixed,12.330152796706063,107.02277648622741,119.35292928293347,71.64034897453342,-175.38479517649617,3.005013415621246,1.5068723468391831,0.014616011997551078,False,0.0,0.233247039102291,0.019267387621270816,-0.1443999885771184,-0.011548283269409609,0.12,approach,normal,approach guidance tracking,检测到侧偏后立即修正，并沿目标接地点下滑,,0.23335724831977037,0.019283925725055107,-0.14436936865114453,-0.011612491162242132,0.12,120.0,1940.5023910698446
1.1666666666666674,0.016666666666666666,141.51216679677992,2058.48783320322,-0.02528608834584421,mixed,12.311329701507688,106.99304292578041,119.3043726272881,71.6299664337654,-174.22268956057238,3.0011661429646654,1.5179208725554505,0.01981780145001941,False,0.0,0.23335724831977037,0.019283925725055107,-0.14436936865114453,-0.011612491162242132,0.12,approach,normal,approach guidance tracking,检测到侧偏后立即修正，并沿目标接地点下滑,,0.23346818671914224,0.019303171300686636,-0.14427705324730022,-0.011676412276670175,0.12,120.0,1938.48783320322
1.183333333333334,0.016666666666666666,143.5264224466945,2056.4735775533054,-0.024589385760018928,mixed,12.289071554660685,106.96706750395906,119.25613905861974,71.61946684519701,-173.0586092261792,2.995976797809949,1.5289805500517994,0.0253530861996125,False,0.0,0.23346818671914224,0.019303171300686636,-0.14427705324730022,-0.011676412276670175,0.12,approach,normal,approach guidance tracking,检测到侧偏后立即修正，并沿目标接地点下滑,,0.23357985607809711,0.019325068510192,-0.14412695857275878,-0.011740418738911972,0.12,120.0,1936.4735775533054
1.2000000000000006,0.016666666666666666,145.54037250611918,2054.459627493881,-0.023698223300480655,mixed,12.263453142102483,106.94477598616886,119.20822912827134,71.60885120867721,-171.89254002904963,2.9895224515051866,1.5400386909058537,0.031225476548276954,False,0.0,0.23357985607809711,0.019325068510192,-0.14412695857275878,-0.011740418738911972,0.12,approach,normal,approach guidance tracking,检测到侧偏后立即修正，并沿目标接地点下滑,,0.23369225779250072,0.0193495630834496,-0.14392290243516087,-0.011804869240643383,0.12,120.0,1934.4596274938808
1.2166666666666672,0.016666666666666666,147.5540136412403,2052.44598635876,-0.02260081435582202,mixed,12.234551071490333,106.92609230864497,119.1606433801353,71.5981205810154,-170.72454824232508,2.981876351324655,1.5510831792976518,0.03743815035794098,False,0.0,0.23369225779250072,0.0193495630834496,-0.14392290243516087,-0.011804869240643383,0.12,approach,normal,approach guidance tracking,检测到侧偏后立即修正，并沿目标接地点下滑,,0.23380539290356717,0.019376601999782868,-0.14366851219286073,-0.011870101576046982,0.12,120.0,1932.44598635876
1.2333333333333338,0.016666666666666666,149.5673425596048,2050.4326574403954,-0.021285267101859795,mixed,12.202443700249352,106.91093863922819,119.11338233947754,71.58727607430674,-169.55477328505972,2.9731081327074658,1.5621024928012004,0.04399386685827597,False,0.0,0.23380539290356717,0.019376601999782868,-0.14366851219286073,-0.011870101576046982,0.12,approach,normal,approach guidance tracking,检测到侧偏后立即修正，并沿目标接地点下滑,,0.23391926210700198,0.01940613329960942,-0.14336723510718044,-0.01193643364006065,0.12,120.0,1930.4326574403954
1.2500000000000004,0.016666666666666666,151.5803560114275,2048.4196439885727,-0.019739599378445084,mixed,12.16721103091453,106.89923543731953,119.06644646823406,71.57631885383668,-168.38342030404604,2.9632840194412124,1.573085717174983,0.05089497964293037,False,0.0,0.23391926210700198,0.01940613329960942,-0.14336723510718044,-0.01193643364006065,0.12,approach,normal,approach guidance tracking,检测到侧偏后立即修正，并沿目标接地点下滑,,0.23403386576734442,0.019438105890847716,-0.1430223481043915,-0.012004164369142117,0.12,120.0,1928.4196439885727
1.266666666666667,0.016666666666666666,153.5930507908034,2046.4069492091967,-0.017951753096867213,mixed,12.128934760191846,106.8909014010938,119.01983616128564,71.56525013584869,-167.21075305040213,2.9524670124167773,1.5840225558168575,0.05814344891731115,False,0.0,0.23403386576734442,0.019438105890847716,-0.1430223481043915,-0.012004164369142117,0.12,approach,normal,approach guidance tracking,检测到侧偏后立即修正，并沿目标接地点下滑,,0.2341492039542439,0.01947246928357814,-0.14263696697843148,-0.012073574627846554,0.12,120.0,1926.4069492091967
1.2833333333333337,0.016666666666666666,155.60542373682563,2044.3945762631743,-0.015909608204143184,mixed,12.087698053286996,106.8858537006214,118.9735517539084,71.55407118520918,-166.03708707559466,2.9407170676216925,1.5949033343599488,0.0657408530609633,False,0.0,0.2341492039542439,0.01947246928357814,-0.14263696697843148,-0.012073574627846554,0.12,approach,normal,approach guidance tracking,检测到侧偏后立即修正，并沿目标接地点下滑,,0.23426527642850875,0.019509173540770253,-0.14221405506735482,-0.012144928044672739,0.12,120.0,1924.3945762631743
1.3000000000000003,0.016666666666666666,157.61747173460998,2042.38252826539,-0.013600996228275463,mixed,12.043585651838182,106.88400781778157,118.92759346961975,71.54278331303392,-164.86278325954947,2.9280912639947747,1.6057190008686308,0.07368839956525539,False,0.0,0.23426527642850875,0.019509173540770253,-0.14221405506735482,-0.012144928044672739,0.12,approach,normal,approach guidance tracking,检测到侧偏后立即修正，并沿目标接地点下滑,,0.23438208269939556,0.019548168956506212,-0.14175643143434108,-0.012218471800430699,0.12,120.0,1922.38252826539
1.3166666666666669,0.016666666666666666,159.62919171622846,2040.3708082837716,-0.011013713426433532,mixed,11.996683707115823,106.88527771678788,118.8819614239037,71.53138787424511,-163.68824167992682,2.9146439617236055,1.6164611220754839,0.0819869354044458,False,0.0,0.23438208269939556,0.019548168956506212,-0.14175643143434108,-0.012218471800430699,0.12,approach,normal,approach guidance tracking,检测到侧偏后立即修正，并沿目标接地点下滑,,0.2344996220232205,0.019589405983148532,-0.141266778582075,-0.012294437372189954,0.12,120.0,1920.3708082837716
1.3333333333333335,0.016666666666666666,161.64058066155408,2038.3594193384458,-0.00813553355598342,mixed,11.947079685176275,106.88957593903456,118.83665562421083,71.5198862650114,-162.51389582863038,2.9004269515284213,1.627121876081209,0.09063695689533177,False,0.0,0.2344996220232205,0.019589405983148532,-0.141266778582075,-0.012294437372189954,0.12,approach,normal,approach guidance tracking,检测到侧偏后立即修正，并沿目标接地点下滑,,0.2346178934169989,0.01963283511512463,-0.14074764972744686,-0.012373041235681994,0.12,120.0,1918.3594193384458
1.35,0.016666666666666666,163.65163559901688,2036.3483644009832,-0.004954220286362275,mixed,11.89486243227641,106.89681352278073,118.79167595505714,71.5082799202405,-161.34020717847358,2.8854895954409177,1.6376940419196722,0.09963861909766471,False,0.0,0.2346178934169989,0.01963283511512463,-0.14074764972744686,-0.012373041235681994,0.12,approach,normal,approach guidance tracking,检测到侧偏后立即修正，并沿目标接地点下滑,,0.2347368957029834,0.019678406657766757,-0.14020147566179716,-0.012454485528854095,0.12,120.0,1916.3483644009832
1.3666666666666667,0.016666666666666666,165.6623536062763,2034.3376463937236,-0.0014575392679663027,mixed,11.840121994990856,106.90690017558262,118.74702217057347,71.49657031102593,-160.16766010028851,2.8698789595540766,1.6481709863698601,0.10899174480436702,False,0.0,0.2347368957029834,0.019678406657766757,-0.14020147566179716,-0.012454485528854095,0.12,approach,normal,approach guidance tracking,检测到侧偏后立即修正，并沿目标接地点下滑,,0.2348566275082593,0.019726070689329044,-0.1396305712203289,-0.012538958679103028,0.12,120.0,1914.3376463937236
1.3833333333333333,0.016666666666666666,167.6727318108118,2032.327268189188,0.0023667301274878753,mixed,11.782949584236773,106.91974428791698,118.70269387215376,71.48475894209157,-158.99675712835634,2.8536399391891774,1.6585466483756628,0.11869583316739796,False,0.0,0.2348566275082593,0.019726070689329044,-0.1396305712203289,-0.012538958679103028,0.12,approach,normal,approach guidance tracking,检测到侧偏后立即修正，并沿目标接地点下滑,,0.23497708729295208,0.01977577691978685,-0.13903714138282508,-0.012626635996557332,0.12,120.0,1912.327268189188
1.4,0.016666666666666666,169.6827673904351,2030.3172326095648,0.006530783382268549,mixed,11.723437526216463,106.9352530157662,118.65869054198265,71.4728473492241,-157.82801456992922,2.836815376898524,1.6688155214136529,0.12875006800189265,False,0.0,0.23497708729295208,0.01977577691978685,-0.13903714138282508,-0.012626635996557332,0.12,approach,normal,approach guidance tracking,检测到侧偏后立即修正，并沿目标接地点下滑,,0.23509827336616754,0.019827474610280577,-0.13842328702643675,-0.012717680235625048,0.12,120.0,1910.3172326095648
1.4166666666666665,0.016666666666666666,171.69245757372622,2028.3075424262738,0.011046779712225157,mixed,11.66167917411204,106.95333232794528,118.61501150205731,71.46083709678815,-156.66195845276854,2.8194461736968575,1.6789726341277418,0.13915332580802223,False,0.0,0.23509827336616754,0.019827474610280577,-0.13842328702643675,-0.012717680235625048,0.12,approach,normal,approach guidance tracking,检测到侧偏后立即修正，并沿目标接地点下滑,,0.23522018390728702,0.01988111247795647,-0.13779101035003047,-0.012812242126880617,0.12,120.0,1908.3075424262738
1.4333333333333331,0.016666666666666666,173.7017996403989,2026.2982003596012,0.015926831240678077,mixed,11.597768836133197,106.9738870929554,118.57165592908859,71.44872977521551,-155.49912080281794,2.8015713938908235,1.6890135295289248,0.1499041835468701,False,0.0,0.23522018390728702,0.01988111247795647,-0.13779101035003047,-0.012812242126880617,0.12,approach,normal,approach guidance tracking,检测到侧偏后立即修正，并沿目标接地点下滑,,0.23534281698046075,0.01993663863981687,-0.1371422199884047,-0.01291046088122886,0.12,120.0,1906.2982003596012
1.4499999999999997,0.016666666666666666,175.71079092159687,2024.289209078403,0.02118299245786054,mixed,11.53180173300086,106.99682113267602,118.52862286567688,71.43652699855649,-154.34003624292242,2.7832283638539894,1.6989342430370693,0.1610009262035509,False,0.0,0.23534281698046075,0.01993663863981687,-0.1371422199884047,-0.01291046088122886,0.12,approach,normal,approach guidance tracking,检测到侧偏后立即修正，并沿目标接地点下滑,,0.23546617055432292,0.01999400054294027,-0.1364787358335866,-0.013012464668156283,0.12,120.0,1904.289209078403
1.4666666666666663,0.016666666666666666,177.71942880012548,2022.2805711998744,0.026827249958329785,mixed,11.46387389328862,107.02203729349588,118.4859111867845,71.42423040210382,-153.18523890216807,2.764452765074692,1.708731279621818,0.17244155416783755,False,0.0,0.23546617055432292,0.01999400054294027,-0.1364787358335866,-0.013012464668156283,0.12,approach,normal,approach guidance tracking,检测到侧偏后立即修正，并沿目标接地点下滑,,0.23559024251769986,0.02005314491716912,-0.13580229357940543,-0.013118371069759723,0.12,120.0,1902.2805711998744
1.483333333333333,0.016666666666666666,179.7277107106225,2020.2722892893776,0.03287151244981596,mixed,11.39408211090596,107.04943750000565,118.44351961091161,71.41184164004491,-152.0352596243518,2.745278721785263,1.7184015902789813,0.18422379045968537,False,0.0,0.23559024251769986,0.02005314491716912,-0.13580229357940543,-0.013118371069759723,0.12,approach,normal,approach guidance tracking,检测到侧偏后立即修正，并沿目标接地点下滑,,0.23571503069811633,0.020114017724795364,-0.1351145490045951,-0.013228287512129094,0.12,120.0,1900.2722892893776
1.4999999999999996,0.016666666666666666,181.73563413967116,2018.2643658603288,0.039327601027922605,mixed,11.322523863334135,107.07892290009192,118.40144676342607,71.39936238312832,-150.89062346343593,2.725738883463806,1.7279425480596764,0.19634508782431961,False,0.0,0.23571503069811633,0.020114017724795364,-0.1351145490045951,-0.013228287512129094,0.12,approach,normal,approach guidance tracking,检测到侧偏后立即修正，并沿目标接地点下滑,,0.23584053286368029,0.020176564185223064,-0.13441708200880095,-0.013342311675555179,0.12,120.0,1898.2643658603288
1.5166666666666662,0.016666666666666666,183.74319662585762,2016.2568033741425,0.04620723971194323,mixed,11.249297233132532,107.11039382422167,118.35969105735421,71.38679431658004,-149.75184745313615,2.705864502483567,1.7373519238500938,0.20880263571894184,False,0.0,0.23584053286368029,0.020176564185223064,-0.13441708200880095,-0.013342311675555179,0.12,approach,normal,approach guidance tracking,检测到侧偏后立即修正，并沿目标接地点下滑,,0.23596674675541518,0.02024072867456642,-0.13371140041505186,-0.013460531884933622,0.12,120.0,1896.2568033741425
1.5333333333333328,0.016666666666666666,185.7503957597811,2014.249604240219,0.05352204623784201,mixed,11.174500855609715,107.14374995325511,118.31825080886483,71.37413913783323,-148.61943863691823,2.685685507170018,1.7466278620817188,0.2215933672106448,False,0.0,0.23596674675541518,0.02024072867456642,-0.13371140041505186,-0.013460531884933622,0.12,approach,normal,approach guidance tracking,检测到侧偏后立即修正，并沿目标接地点下滑,,0.2360936700842971,0.020306454783743166,-0.13299894355150246,-0.013583027481643582,0.12,120.0,1894.249604240219
1.5499999999999994,0.016666666666666666,187.7572291840133,2012.2427708159867,0.06128352310508177,mixed,11.098233837059148,107.17889033315478,118.27712417021394,71.36139855454503,-147.49389234512194,2.6652305705117563,1.7557688565336402,0.2347139658028148,False,0.0,0.2360936700842971,0.020306454783743166,-0.13299894355150246,-0.013583027481643582,0.12,approach,normal,approach guidance tracking,检测到侧偏后立即修正，并沿目标接地点下滑,,0.2362213005524056,0.02037368527418344,-0.13228108562454133,-0.013709869178091978,0.12,120.0,1892.2427708159867
1.566666666666666,0.016666666666666666,189.76369459301597,2010.236305406984,0.06950304887462022,mixed,11.020595672994599,107.21571350517894,118.23630917817354,71.34857428258368,-146.37569070477088,2.6445271747584553,1.7647737263721324,0.2481608722051166,False,0.0,0.2362213005524056,0.02037368527418344,-0.13228108562454133,-0.013709869178091978,0.12,approach,normal,approach guidance tracking,检测到侧偏后立即修正，并沿目标接地点下滑,,0.2363496358536445,0.02044236212413096,-0.13155913889470847,-0.0138411193960335,0.12,120.0,1890.236305406984
1.5833333333333326,0.016666666666666666,191.76978973301675,2008.2302102669832,0.0781918697158834,mixed,10.94168620890365,107.25411750787511,118.19580371677876,71.33566804414266,-145.26530136826895,2.6236016721268904,1.7736415925561764,0.26193029106013954,False,0.0,0.2363496358536445,0.02044236212413096,-0.13155913889470847,-0.0138411193960335,0.12,approach,normal,approach guidance tracking,检测到侧偏后立即修正，并沿目标接地点下滑,,0.23647867369601416,0.020512426489616715,-0.1308343566662462,-0.01397683258970016,0.12,120.0,1888.2302102669832
1.5999999999999992,0.016666666666666666,193.7755124018481,2006.2244875981519,0.08736109120098821,mixed,10.86160552577673,107.29400003625454,118.15560556203127,71.32268156589328,-144.1631764466752,2.602479341824895,1.7823718547220813,0.2760181976378946,False,0.0,0.23647867369601416,0.020512426489616715,-0.1308343566662462,-0.01397683258970016,0.12,approach,normal,approach guidance tracking,检测到侧偏后立即修正，并沿目标接地点下滑,,0.23660841179513092,0.020583818785137677,-0.13010793610054253,-0.014117055554704008,0.12,120.0,1886.2244875981519
1.6166666666666658,0.016666666666666666,195.7808604487504,2004.2191395512496,0.09702167034485706,mixed,10.7804538943191,107.33525845405265,118.11571234837174,71.30961657726102,-143.0697516337154,2.581184443592383,1.7909641686462487,0.2904203445076222,False,0.0,0.23660841179513092,0.020583818785137677,-0.13010793610054253,-0.014117055554704008,0.12,approach,normal,approach guidance tracking,检测到侧偏后立即修正，并沿目标接地点下滑,,0.23673884789270533,0.020656478664635942,-0.12938102086318143,-0.014261827723610246,0.12,120.0,1884.2191395512496
1.6333333333333324,0.016666666666666666,197.7858317741437,2002.2141682258564,0.1071844078901987,mixed,10.69833171935125,107.37778988658147,118.07612160593271,71.2964773306007,-141.98543750058866,2.5597402679488104,1.7994184243707767,0.3051322681947625,False,0.0,0.23673884789270533,0.020656478664635942,-0.12938102086318143,-0.014261827723610246,0.12,approach,normal,approach guidance tracking,检测到侧偏后立即修正，并沿目标接地点下滑,,0.23686994949772988,0.02073034438187756,-0.12865470361382136,-0.014411181449017115,0.12,120.0,1882.2141682258564
1.649999999999999,0.016666666666666666,199.79042440027456,2000.2095755997254,0.1178599412141926,mixed,10.615339425337394,107.42149133147589,118.03683075681329,71.28326547898128,-140.91061664186194,2.538169184667736,1.8077348275890395,0.3201493263665037,False,0.0,0.23686994949772988,0.02073034438187756,-0.12865470361382136,-0.014411181449017115,0.12,approach,normal,approach guidance tracking,检测到侧偏后立即修正，并沿目标接地点下滑,,0.2370017153324594,0.020805353651597594,-0.12793002894149266,-0.014565142738449147,0.12,120.0,1880.2095755997254
1.6666666666666656,0.016666666666666666,201.7946363977483,1998.2053636022517,0.12905873783470112,mixed,10.531577423679952,107.46625967277276,117.99783709645271,71.26998251414764,-139.8456732899121,2.5165151660064633,1.815913947525115,0.3354669260238788,False,0.0,0.2370017153324594,0.020805353651597594,-0.12793002894149266,-0.014565142738449147,0.12,approach,normal,approach guidance tracking,检测到侧偏后立即修正，并沿目标接地点下滑,,0.23713414607502958,0.020881444191046383,-0.12720907839160941,-0.014723820259017443,0.12,120.0,1878.2053636022517
1.6833333333333322,0.016666666666666666,203.79846588054826,1996.2015341194517,0.14079109721376476,mixed,10.447146014601213,107.51199183118321,117.95913784578443,71.25663016751511,-138.7909704636458,2.49482108490369,1.823956511074102,0.3510802369347546,False,0.0,0.23713414607502958,0.020881444191046383,-0.12720907839160941,-0.014723820259017443,0.12,approach,normal,approach guidance tracking,检测到侧偏后立即修正，并沿目标接地点下滑,,0.23726723952052006,0.020958553027355085,-0.12649387583623575,-0.014887314773869105,0.12,120.0,1876.2015341194517
1.6999999999999988,0.016666666666666666,205.80191101255028,1994.1980889874496,0.1530671426070035,mixed,10.362145341354948,107.55858475400176,117.9207300953567,71.24321016300289,-137.74685304879532,2.4731276092103402,1.8318633787251557,0.36698418750955875,False,0.0,0.23726723952052006,0.020958553027355085,-0.12649387583623575,-0.014887314773869105,0.12,approach,normal,approach guidance tracking,检测到侧偏后立即修正，并沿目标接地点下滑,,0.23740099354870842,0.021036616630898133,-0.12578633428677513,-0.01505571487024968,0.12,120.0,1874.1980889874496
1.7166666666666655,0.016666666666666666,207.8049700071115,1992.1950299928885,0.1658968127452873,mixed,10.276675301919962,107.60593557419321,117.88261087611318,71.22972421552946,-136.7136480535915,2.451473253023459,1.8396355277215075,0.38317347524968626,False,0.0,0.23740099354870842,0.021036616630898133,-0.12578633428677513,-0.01505571487024968,0.12,approach,normal,approach guidance tracking,检测到侧偏后立即修正，并沿目标接地点下滑,,0.23753540611349305,0.021115571038157227,-0.12508825849861802,-0.015229097302979725,0.12,120.0,1872.1950299928885
1.733333333333332,0.016666666666666666,209.80764112663357,1990.1923588733664,0.17928985389314683,mixed,10.190835496670141,107.65394160311804,117.84477709978819,71.21617402986413,-135.69166460475185,2.429894426737086,1.8472740360199953,0.39964257718405977,False,0.0,0.23753540611349305,0.021115571038157227,-0.12508825849861802,-0.015229097302979725,0.12,approach,normal,approach guidance tracking,检测到侧偏后立即修正，并沿目标接地点下滑,,0.23767047525798896,0.021195351846435534,-0.1244013475158078,-0.01540752733325497,0.12,120.0,1870.1923588733664
1.7499999999999987,0.016666666666666666,211.80992268210966,1988.1900773178904,0.19325581228311844,mixed,10.104725136797079,107.70250047426379,117.80722561106086,71.2025612993537,-134.6811906709587,2.4084254875748377,1.8547800671630248,0.41638576030350233,False,0.0,0.23767047525798896,0.021195351846435534,-0.1244013475158078,-0.01540752733325497,0.12,approach,normal,approach guidance tracking,检测到侧偏后立即修正，并沿目标接地点下滑,,0.23780619910393994,0.02127589421259927,-0.12372719724059571,-0.015591059069620036,0.12,120.0,1868.1900773178904
1.7666666666666653,0.016666666666666666,213.81181303265157,1986.1881869673484,0.20780402692546313,mixed,10.01844298870961,107.75151019139489,117.7699531801045,71.18888770583114,-133.68249331840505,2.387103881758673,1.8621548883843893,0.43339714693257775,False,0.0,0.23780619910393994,0.02127589421259927,-0.12372719724059571,-0.015591059069620036,0.12,approach,normal,approach guidance tracking,检测到侧偏后立即修正，并沿目标接地点下滑,,0.23794257584415196,0.02135713289605018,-0.12306754835265347,-0.015779755981597088,0.12,120.0,1866.1881869673484
1.7833333333333319,0.016666666666666666,215.81331058499288,1984.186689415007,0.2229436247118133,mixed,9.932087308621064,107.80086919396554,117.7329565025866,71.17515491952705,-132.69583156622068,2.365976390057888,1.8693998948132602,0.45067078328222937,False,0.0,0.23794257584415196,0.02135713289605018,-0.12306754835265347,-0.015779755981597088,0.12,approach,normal,approach guidance tracking,检测到侧偏后立即修正，并沿目标接地点下滑,,0.23807960373178577,0.021439002717366148,-0.12242458725651226,-0.015973715656165226,0.12,120.0,1864.186689415007
1.7999999999999985,0.016666666666666666,217.81441379296066,1982.1855862070393,0.23868351792098838,mixed,9.845755770595485,107.85047641789753,117.69623218849301,71.16136459417118,-131.72144614910252,2.3450865879025633,1.8765165135490998,0.46820049501611055,False,0.0,0.23807960373178577,0.021439002717366148,-0.12242458725651226,-0.015973715656165226,0.12,approach,normal,approach guidance tracking,检测到侧偏后立即修正，并沿目标接地点下滑,,0.2382172811282042,0.021521438274623883,-0.12180034165922218,-0.016173019977192386,0.12,120.0,1862.1855862070393
1.816666666666665,0.016666666666666666,219.8151211569179,1980.184878843082,0.25503239668700156,mixed,9.759545384781669,107.90023142577498,117.65977681055665,71.1475183680928,-130.75956169190172,2.3244749233802455,1.8835061941455884,0.4859799009865973,False,0.0,0.2382172811282042,0.021521438274623883,-0.12180034165922218,-0.016173019977192386,0.12,approach,normal,approach guidance tracking,检测到侧偏后立即修正，并沿目标接地点下滑,,0.23835560646633747,0.021604374106448693,-0.1211966845153978,-0.01637773562033089,0.12,120.0,1860.184878843082
1.8333333333333317,0.016666666666666666,221.81543122324825,1978.1845687767518,0.2719987219576354,mixed,9.673552464706663,107.95003439484739,117.62358685955405,71.13361786318075,-129.81038703212766,2.3041787658109523,1.8903703985412288,0.5040024265314498,False,0.0,0.23835560646633747,0.021604374106448693,-0.1211966845153978,-0.01637773562033089,0.12,approach,normal,approach guidance tracking,检测到侧偏后立即修正，并沿目标接地点下滑,,0.23849457826532744,0.02168774469377945,-0.1206153365547858,-0.016587914430011,0.12,120.0,1858.1845687767518
1.8499999999999983,0.016666666666666666,223.81534258382374,1976.1846574161764,0.2895907189272034,mixed,9.58787252915653,107.99978624867646,117.58765877783298,71.11966468411501,-128.87411554041276,2.2842324604442594,1.8971105918427476,0.5222613167436989,False,0.0,0.23849457826532744,0.02168774469377945,-0.1206153365547858,-0.016587914430011,0.12,approach,normal,approach guidance tracking,检测到侧偏后立即修正，并沿目标接地点下滑,,0.23863419511605635,0.021771484564949227,-0.12005786910550616,-0.01680359381977087,0.12,120.0,1856.1846574161764
