t,dt,distance_ft,distance_to_runway_ft,cross_track_ft,terrain_type,terrain_elev_ft,h_agl_ft,h_sl_ft,vc_kts,vs_fpm,roll_deg,pitch_deg,yaw_deg,wow,runway_heading_deg,cmd_throttle,cmd_elevator,cmd_aileron,cmd_rudder,cmd_flaps,phase,mode,note,suggestion,alerts,throttle,elevator,aileron,rudder,flaps,target_td_past_threshold_ft,distance_to_td_ft
0.0,0.016666666666666666,0.0,2200.0,0.0,valley,0.0,120.0,120.0,72.00000000000111,-249.99881141522067,-0.13919080792375008,1.198185318768672,360.0,False,0.0,0.0,0.0,0.0,0.0,0.0,approach,normal,approach guidance tracking,检测到侧偏后立即修正，并沿目标接地点下滑,,0.22802147256355734,0.025688813774127846,0.006681158780340004,0.0005289250701102503,0.12,120.0,2080.0
0.016666666666666666,0.016666666666666666,2.0249289734051947,2197.975071026595,0.0,valley,0.0,119.9305714443326,119.9305714443326,72.0000704998379,-249.99732891590634,-0.1391908086685575,1.1981909082129325,359.9999999999844,False,0.0,0.22802147256355734,0.025688813774127846,0.006681158780340004,0.0005289250701102503,0.12,approach,normal,approach guidance tracking,检测到侧偏后立即修正，并沿目标接地点下滑,,0.22801402174000956,0.025715173690581614,0.006681158816359898,0.0005289250731741449,0.12,120.0,2077.975071026595
0.03333333333333333,0.016666666666666666,4.049859925417119,2195.950140074583,-5.504505880511188e-13,valley,0.0,119.86111515760422,119.86111515760422,72.00000085525588,-249.8727338911135,-0.13919077297794397,1.1981965003957278,359.9999999999622,False,0.0,0.22801402174000956,0.025715173690581614,0.006681158816359898,0.0005289250731741449,0.12,approach,normal,approach guidance tracking,检测到侧偏后立即修正，并沿目标接地点下滑,,0.2280082576224136,0.025737597910384914,0.006681157103597151,0.0005289249378837506,0.12,120.0,2075.950140074583
0.05,0.016666666666666666,6.074788914610206,2193.92521108539,-1.886396888169543e-12,valley,0.0,119.79173761606216,119.79173761606216,71.99982844956328,-249.67733207046984,-0.1346945909310014,1.1982156065098102,4.8506436624188315e-05,False,0.0,0.2280082576224136,0.025737597910384914,0.006681157103597151,0.0005289249378837506,0.12,approach,normal,approach guidance tracking,检测到侧偏后立即修正，并沿目标接地点下滑,,0.22800371248252702,0.02575783044384926,0.006464502173472256,0.0005111118489903289,0.12,120.0,2073.92521108539
0.06666666666666667,0.016666666666666666,8.099713040940163,2191.90028695906,1.7142928598710322e-06,valley,0.0,119.7224181368947,119.7224181368947,71.99954940048862,-249.4126914969379,-0.1232319363110226,1.1982621264155284,0.00016194542598409702,False,0.0,0.22800371248252702,0.02575783044384926,0.006464502173472256,0.0005111118489903289,0.12,approach,normal,approach guidance tracking,检测到侧偏后立即修正，并沿目标接地点下滑,,0.22800043665787117,0.02577590718852367,0.0059123262973623525,0.00046585046229926454,0.12,120.0,2071.90028695906
0.08333333333333333,0.016666666666666666,10.124629284902223,2189.8753707150977,7.437679931256311e-06,valley,0.0,119.65318160131574,119.65318160131574,71.99915995910216,-249.08235150040173,-0.10522061371115751,1.198329787711574,0.0003222942102454416,False,0.0,0.22800043665787117,0.02577590718852367,0.0059123262973623525,0.00046585046229926454,0.12,approach,normal,approach guidance tracking,检测到侧偏后立即修正，并沿目标接地点下滑,,0.22799847068546847,0.025791959812068867,0.005044984513318849,0.00039499648126878567,0.12,120.0,2069.8753707150977
0.09999999999999999,0.016666666666666666,12.149534526191674,2187.8504654738085,1.882796454045315e-05,valley,0.0,119.5840455442667,119.5840455442667,71.99865627262236,-248.68967911513158,-0.08105464057924572,1.1984142619167737,0.0005129581797035657,False,0.0,0.22799847068546847,0.025791959812068867,0.005044984513318849,0.00039499648126878567,0.12,approach,normal,approach guidance tracking,检测到侧偏后立即修正，并沿目标接地点下滑,,0.2279978576718431,0.02580610920187581,0.0038816684562287223,0.00030029443354103976,0.12,120.0,2067.8504654738085
0.11666666666666665,0.016666666666666666,14.174425539346064,2185.825574460654,3.6956427352530726e-05,valley,0.0,119.51502683386207,119.51502683386207,71.99803478170566,-248.23787239534505,-0.0511055612032016,1.1985133514794335,0.0007187197080211538,False,0.0,0.2279978576718431,0.02580610920187581,0.0038816684562287223,0.00030029443354103976,0.12,approach,normal,approach guidance tracking,检测到侧偏后立即修正，并沿目标接地点下滑,,0.2279986373232842,0.025818470313576147,0.002440470070347779,0.00018338338052449623,0.12,120.0,2065.825574460654
0.13333333333333333,0.016666666666666666,16.199299000422652,2183.800700999577,6.235649128488877e-05,valley,0.0,119.44614146277308,119.44614146277308,71.99728888482326,-247.7299708352046,-0.015723784996837676,1.1986267730443267,0.0009256836194939129,False,0.0,0.2279986373232842,0.025818470313576147,0.002440470070347779,0.00018338338052449623,0.12,approach,normal,approach guidance tracking,检测到侧偏后立即修正，并沿目标接地点下滑,,0.2280008860108126,0.025829152919937447,0.0007384465557451862,4.580277220428958e-05,0.12,120.0,2063.800700999577
0.15,0.016666666666666666,18.22415140002472,2181.7758485999752,9.507046627662546e-05,valley,0.0,119.3774046190083,119.3774046190083,71.99641451090953,-247.16886105353777,0.02476016190436216,1.1987563087742437,0.0011211965122620005,False,0.0,0.2280008860108126,0.025829152919937447,0.0007384465557451862,4.580277220428958e-05,0.12,approach,normal,approach guidance tracking,检测到侧偏后立即修正，并沿目标接地点下滑,,0.22800464988647998,0.025838260894923852,-0.0012083183853793989,-0.00011100163338678284,0.12,120.0,2061.7758485999752
0.16666666666666666,0.016666666666666666,20.248979112940724,2179.7510208870594,0.0001346934505313316,valley,3.2706509777302854e-09,119.3088306863682,119.30883068963885,71.99540785281543,-246.55726787313063,0.07003445863296369,1.1989054561527475,0.0012938140151175605,False,0.0,0.22800464988647998,0.025838260894923852,-0.0012083183853793989,-0.00011100163338678284,0.12,approach,normal,approach guidance tracking,检测到侧偏后立即修正，并沿目标接地点下滑,,0.22800997208118876,0.025845892314478494,-0.003384657649126039,-0.00028567284648255674,0.12,120.0,2059.7510208870594
0.18333333333333332,0.016666666666666666,22.273778404297254,2177.7262215957026,0.00018041608006875477,valley,0.0,119.24043334648013,119.24043334648013,71.99426484851136,-245.89775682847036,0.11980488664310503,1.1990791705485857,0.0014332636783947255,False,0.0,0.22800997208118876,0.025845892314478494,-0.003384657649126039,-0.00028567284648255674,0.12,approach,normal,approach guidance tracking,检测到侧偏后立即修正，并沿目标接地点下滑,,0.22801689891183372,0.025852139697414036,-0.005776267352416033,-0.00047693794049978876,0.12,120.0,2057.7262215957026
0.19999999999999998,0.016666666666666666,24.29854542131081,2175.701454578689,0.000231065971684801,valley,3.27065097773027e-09,119.17222556144759,119.17222556471825,71.99297982637216,-245.1927396981178,0.17379379584718882,1.1992836743354232,0.0015304029897169806,False,0.0,0.22801689891183372,0.025852139697414036,-0.005776267352416033,-0.00047693794049978876,0.12,approach,normal,approach guidance tracking,检测到侧偏后立即修正，并沿目标接地点下滑,,0.22802549614108308,0.025857090398823564,-0.008369656680991459,-0.0006836035350367569,0.12,120.0,2055.701454578689
0.21666666666666665,0.016666666666666666,26.323276147079568,2173.6767238529205,0.0002851476855920595,valley,0.0,119.10421965643764,119.10421965643764,71.99154984562627,-244.44446945701367,0.23173913407203975,1.199526212665516,0.001577162827452275,False,0.0,0.22802549614108308,0.025857090398823564,-0.008369656680991459,-0.0006836035350367569,0.12,approach,normal,approach guidance tracking,检测到侧偏后立即修正，并沿目标接地点下滑,,0.2280357968775586,0.025860825768205073,-0.011152100518007125,-0.0009045512995711273,0.12,120.0,2053.6767238529205
0.2333333333333333,0.016666666666666666,28.34796647662507,2171.652033523375,0.0003408806968469091,valley,-3.2706509777302597e-09,119.03642734467223,119.03642734140158,71.9899714375082,-243.65504798079127,0.2933935369087774,1.1998149762754327,0.0015665326038350675,False,0.0,0.2280357968775586,0.025860825768205073,-0.011152100518007125,-0.0009045512995711273,0.12,approach,normal,approach guidance tracking,检测到侧偏后立即修正，并沿目标接地点下滑,,0.22804784067678982,0.02586342196986644,-0.01411159568236045,-0.001138734310007727,0.12,120.0,2051.652033523375
0.24999999999999997,0.016666666666666666,30.37261220133719,2169.6273877986628,0.00039623684289353845,valley,0.0,118.96885978803039,118.96885978803039,71.98824125883709,-242.82643618226078,0.3585234736153393,1.2001589547121168,0.001492526347542407,False,0.0,0.22804784067678982,0.02586342196986644,-0.01411159568236045,-0.001138734310007727,0.12,approach,normal,approach guidance tracking,检测到侧偏后立即修正，并沿目标接地点下滑,,0.22806166568751057,0.02586495023872502,-0.017236819525667708,-0.001385173331794319,0.12,120.0,2049.6273877986628
0.26666666666666666,0.016666666666666666,32.39720901190633,2167.6027909880936,0.0004489765753531178,valley,3.2706509777302357e-09,118.90152762503192,118.90152762830257,71.98635606702247,-241.96045713464133,0.42682387573671554,1.200567200320744,0.0013492635760743458,False,0.0,0.22806166568751057,0.02586495023872502,-0.017236819525667708,-0.001385173331794319,0.12,approach,normal,approach guidance tracking,检测到侧偏后立即修正，并沿目标接地点下滑,,0.2280773089465244,0.025865477001483523,-0.020513016397518607,-0.0016426186580159872,0.12,120.0,2047.6027909880936
0.2833333333333333,0.016666666666666666,34.42175250109438,2165.5782474989055,0.0004966527359901105,valley,0.0,118.83444098755717,118.83444098755717,71.98431273426016,-241.05879804188254,0.4979202301125504,1.201048748961786,0.0011311197655370507,False,0.0,0.2280773089465244,0.025865477001483523,-0.020513016397518607,-0.0016426186580159872,0.12,approach,normal,approach guidance tracking,检测到侧偏后立即修正，并沿目标接地点下滑,,0.22809480620531813,0.025865063949077546,-0.02392210072808365,-0.0019095603236467373,0.12,120.0,2045.5782474989055
0.3,0.016666666666666666,36.44623816696046,2163.5537618330395,0.0005366196545139428,valley,-3.2706509777302146e-09,118.76760956972078,118.76760956645012,71.98210826317312,-240.12302094551288,0.5714501090742652,1.2016131159638825,0.0008337000018845586,False,0.0,0.22809480620531813,0.025865063949077546,-0.02392210072808365,-0.0019095603236467373,0.12,approach,normal,approach guidance tracking,检测到侧偏后立即修正，并沿目标接地点下滑,,0.2281141917299443,0.025863768428590957,-0.027446587345938963,-0.00218455253416499,0.12,120.0,2043.5537618330395
0.31666666666666665,0.016666666666666666,38.4706614161553,2161.5293385838445,0.0005660766525852224,valley,3.270650977730204e-09,118.70104264140889,118.70104264467955,71.97973976855509,-239.15456252807104,0.6470633550051601,1.2022701968444574,0.00045380433296509726,False,0.0,0.2281141917299443,0.025863768428590957,-0.027446587345938963,-0.00218455253416499,0.12,approach,normal,approach guidance tracking,检测到侧偏后立即修正，并沿目标接地点下滑,,0.22813549851762924,0.02586164344952282,-0.031069599947053734,-0.0024662138906666703,0.12,120.0,2041.5293385838445
0.3333333333333333,0.016666666666666666,40.49501756677071,2159.504982433229,0.0005821103220877808,valley,-3.2706509777301902e-09,118.63474911405876,118.6347491107881,71.97720447440376,-238.15473846843508,0.7244224447727523,1.2030301662665446,359.9999893925732,False,0.0,0.22813549851762924,0.02586164344952282,-0.031069599947053734,-0.0024662138906666703,0.12,approach,normal,approach guidance tracking,检测到侧偏后立即修正，并沿目标接地点下滑,,0.2281587583205085,0.025858737870712814,-0.03477488818230275,-0.002753228289056306,0.12,120.0,2039.504982433229
0.35,0.016666666666666666,42.51930185117486,2157.480698148825,0.0005817355571821608,valley,0.0,118.56873751431704,118.56873751431704,71.9744997094506,-237.1247474136408,0.8032027981449991,1.2039033839885043,359.99943954622273,False,0.0,0.2281587583205085,0.025858737870712814,-0.03477488818230275,-0.002753228289056306,0.12,approach,normal,approach guidance tracking,检测到侧偏后立即修正，并沿目标接地点下滑,,0.22818400170398304,0.025855096508956926,-0.038546842000363235,-0.003044345561849154,0.12,120.0,2037.480698148825
0.36666666666666664,0.016666666666666666,44.543509418785085,2155.456490581215,0.0005619352370387696,valley,3.270650977730164e-09,118.50301607743665,118.50301608070731,71.97162290300312,-236.06567509846508,0.8830930328129117,1.2049003076413052,359.9988044277426,False,0.0,0.22818400170398304,0.025855096508956926,-0.038546842000363235,-0.003044345561849154,0.12,approach,normal,approach guidance tracking,检测到侧偏后立即修正，并沿目标接地点下滑,,0.22821125807977444,0.025850760338542125,-0.04237050337554941,-0.0033383818760648674,0.12,120.0,2035.456490581215
0.3833333333333333,0.016666666666666666,46.56763533878159,2153.4323646612183,0.0005196984646996177,valley,0.0,118.43759274110198,118.43759274110198,71.96857158091359,-234.97849857238688,0.9637951680094653,1.2060314122012668,359.99808523743434,False,0.0,0.22821125807977444,0.025850760338542125,-0.04237050337554941,-0.0033383818760648674,0.12,approach,normal,approach guidance tracking,检测到侧偏后立即修正，并沿目标接地点下滑,,0.22824055575538696,0.025845766622534704,-0.04623157551995027,-0.0036342198984157456,0.12,120.0,2033.4323646612183
0.39999999999999997,0.016666666666666666,48.5916746027599,2151.40832539724,0.00045205727635539805,valley,0.0,118.37247518450022,118.37247518450022,71.96534336174852,-233.8640905158198,1.0450247787731468,1.207307116004873,359.9972841681875,False,0.0,0.22824055575538696,0.025845766622534704,-0.04623157551995027,-0.0036342198984157456,0.12,approach,normal,approach guidance tracking,检测到侧偏后立即修正，并沿目标接地点下滑,,0.22827192197301485,0.0258401490794984,-0.0501164296823174,-0.0039308087394266805,0.12,120.0,2031.4083253972399
0.41666666666666663,0.016666666666666666,50.61562212732256,2149.3843778726773,0.00035612174465113843,valley,0.0,118.3076708689332,118.3076708689332,71.96193595314544,-232.72322362934688,1.1265111029503028,1.2087377131375827,359.9964043583629,False,0.0,0.22827192197301485,0.0258401490794984,-0.0501164296823174,-0.0039308087394266805,0.12,approach,normal,approach guidance tracking,检测到侧偏后立即修正，并沿目标接地点下滑,,0.22830538294592728,0.025833938053653936,-0.05401210963849968,-0.0042271636883992264,0.12,120.0,2029.3843778726773
0.4333333333333333,0.016666666666666666,52.639472756610225,2147.3605272433897,0.00022911340918535013,valley,0.0,118.24318704009056,118.24318704009056,71.95834714839056,-231.55657508162838,1.2079971030666201,1.210333312016035,359.9954498430884,False,0.0,0.22830538294592728,0.025833938053653936,-0.05401210963849968,-0.0042271636883992264,0.12,approach,normal,approach guidance tracking,检测到侧偏后立即修正，并沿目标接地点下滑,,0.22834096389910288,0.025827160659301792,-0.05790633398012956,-0.004522365751388472,0.12,120.0,2027.3605272433897
0.44999999999999996,0.016666666666666666,54.66322126477356,2145.3367787352263,6.83969771842758e-05,valley,0.0,118.17903078719974,118.17903078719974,71.95457482308242,-230.3647310034353,1.2892394852249995,1.2121037799725332,359.99442550424124,False,0.0,0.22834096389910288,0.025827160659301792,-0.05790633398012956,-0.004522365751388472,0.12,approach,normal,approach guidance tracking,检测到侧偏后立即修正，并沿目标接地点下滑,,0.2283786890985956,0.02581984096768284,-0.061787496309579006,-0.004815561004450709,0.12,120.0,2025.3367787352263
0.4666666666666666,0.016666666666666666,56.68686235838378,2143.3131376416163,-0.00012848975289711685,valley,-3.2706509777300736e-09,118.11520903512076,118.1152090318501,71.9506169320301,-229.14819101640217,1.3700086772053293,1.2140586936408555,359.9933370193907,False,0.0,0.2283786890985956,0.02581984096768284,-0.061787496309579006,-0.004815561004450709,0.12,approach,normal,approach guidance tracking,检测到侧偏后立即修正，并沿目标接地点下滑,,0.22841858189015696,0.02581200014665409,-0.06564466345011334,-0.005105959774487975,0.12,120.0,2023.3131376416163
0.4833333333333333,0.016666666666666666,58.710390678784144,2141.2896093212157,-0.00036380778234661746,valley,0.0,118.05172858014703,118.05172858014703,71.94647150626732,-227.9073727858983,1.4500887679516774,1.216207294934854,359.99219080997096,False,0.0,0.22841858189015696,0.02581200014665409,-0.06564466345011334,-0.005105959774487975,0.12,approach,normal,approach guidance tracking,检测到侧偏后立即修正，并沿目标接地点下滑,,0.22846066472859974,0.025803656632606812,-0.0694675717806235,-0.005392835659998487,0.12,120.0,2021.2896093212157
0.49999999999999994,0.016666666666666666,60.73380080438172,2139.2661991956184,-0.0006395906456365236,valley,3.2706509777300347e-09,117.98859611944124,117.9885961227119,71.94213665025407,-226.64261658818535,1.5292774106347116,1.2185584524044575,359.99099398894407,False,0.0,0.22846066472859974,0.025803656632606812,-0.0694675717806235,-0.005392835659998487,0.12,approach,normal,approach guidance tracking,检测到侧偏后立即修正，并沿目标接地点下滑,,0.22850495920605865,0.0257948262982474,-0.07324662180432062,-0.005675524403927307,0.12,120.0,2019.2661991956184
0.5166666666666666,0.016666666666666666,62.75708725288085,2137.242912747119,-0.0009576200049421823,valley,3.2706509777300157e-09,117.92581826866433,117.92581827193499,71.93760610064543,-225.3542227208661,1.6073856914722129,1.2211206277481368,359.98975430820707,False,0.0,0.22850495920605865,0.0257948262982474,-0.07324662180432062,-0.005675524403927307,0.12,approach,normal,approach guidance tracking,检测到侧偏后立即修正，并沿目标接地点下滑,,0.22855153934357078,0.025785524416499624,-0.07697287106046063,-0.005953422630695491,0.12,120.0,2017.2429127471191
0.5333333333333333,0.016666666666666666,64.7802443586295,2135.2197556413703,-0.0013194030929787838,valley,-3.2706509777299954e-09,117.86340156152085,117.86340155825019,71.9328769678293,-224.0423982266898,1.6842379644945433,1.2239023367330135,359.9884800780073,False,0.0,0.22855153934357078,0.025785524416499624,-0.07697287106046063,-0.005953422630695491,0.12,approach,normal,approach guidance tracking,检测到侧偏后立即修正，并沿目标接地点下滑,,0.22860043869386054,0.025775762638388485,-0.08063802490885767,-0.006225986032095562,0.12,120.0,2015.2197556413703
0.55,0.016666666666666666,66.80326636733199,2133.196733632668,-0.0017261530450840277,valley,0.0,117.80135246738791,117.80135246738791,71.92794844450884,-222.70726529343597,1.7596716590375772,1.2269118990984194,359.98718012878425,False,0.0,0.22860043869386054,0.025775762638388485,-0.08063802490885767,-0.006225986032095562,0.12,approach,normal,approach guidance tracking,检测到侧偏后立即修正，并沿目标接地点下滑,,0.22865166583428492,0.025765549496307234,-0.08423442672457908,-0.006492728083061397,0.12,120.0,2013.196733632668
0.5666666666666668,0.016666666666666666,68.82614749461942,2131.1738525053806,-0.0021787705945895603,valley,3.270650977729952e-09,117.73967747063205,117.7396774739027,71.92281891426019,-221.34888801118436,1.8335370605054584,1.2301571095214563,359.9858637763654,False,0.0,0.22865166583428492,0.025765549496307234,-0.08423442672457908,-0.006492728083061397,0.12,approach,normal,approach guidance tracking,检测到侧偏后立即修正，并沿目标接地点下滑,,0.22870523904931056,0.02575489180906925,-0.08775504686100244,-0.006753218704807454,0.12,120.0,2011.1738525053806
0.5833333333333335,0.016666666666666666,70.84888190354181,2129.151118096458,-0.002677826998233766,valley,6.541301955459854e-09,117.67838301973076,117.67838302627206,71.91748682481254,-219.9672725412554,1.9056970645992148,1.2336452190037361,359.9845407701988,False,0.0,0.22870523904931056,0.02575489180906925,-0.08775504686100244,-0.006753218704807454,0.12,approach,normal,approach guidance tracking,检测到侧偏后立即修正，并沿目标接地点下滑,,0.2287611758605234,0.025743794501506,-0.09119347004020614,-0.007007082571460859,0.12,120.0,2009.151118096458
0.6000000000000002,0.016666666666666666,72.87146370662812,2127.128536293372,-0.0032235488083211606,valley,3.270650977729911e-09,117.617475584604,117.61747558787465,71.91195068526457,-218.5623717488291,1.97602690781153,1.2373829235129996,359.98322124247335,False,0.0,0.2287611758605234,0.025743794501506,-0.09119347004020614,-0.007007082571460859,0.12,approach,normal,approach guidance tracking,检测到侧偏后立即修正，并沿目标接地点下滑,,0.22881949304969262,0.025732260794518416,-0.09454388161061296,-0.007253997337975719,0.12,120.0,2007.1285362933718
0.6166666666666669,0.016666666666666666,74.89388696787162,2125.106113032128,-0.0038158044564688878,valley,3.270650977729884e-09,117.55696163371965,117.55696163699031,71.90620906395726,-217.13409010858362,2.0444138761704647,1.2413763567379335,359.9819156582258,False,0.0,0.22881949304969262,0.025732260794518416,-0.09454388161061296,-0.007253997337975719,0.12,approach,normal,approach guidance tracking,检测到侧偏后立即修正，并沿目标接地点下滑,,0.22888020668839892,0.02572029234600046,-0.09780105276893263,-0.007493691798377896,0.12,120.0,2005.1061130321282
0.6333333333333336,0.016666666666666666,76.91614570465686,2123.0838542953434,-0.004454092614087313,valley,0.0,117.49684768915176,117.49684768915176,71.90026058654051,-215.68228850702462,2.110756994225782,1.245631086729812,359.98063476659627,False,0.0,0.22888020668839892,0.02572029234600046,-0.09780105276893263,-0.007493691798377896,0.12,approach,normal,approach guidance tracking,检测到侧偏后立即修正，并沿目标接地点下滑,,0.22894333215130663,0.025707889444558776,-0.10096032484507343,-0.0077259439843878975,0.12,120.0,2003.0838542953434
0.6500000000000004,0.016666666666666666,78.93823388963192,2121.061766110368,-0.005137532288915183,valley,-3.270650977729843e-09,117.43714030786589,117.43714030459523,71.89410393414917,-214.20678894343607,2.174966696229019,1.25015211615291,359.9793895533793,False,0.0,0.22894333215130663,0.025707889444558776,-0.10096032484507343,-0.0077259439843878975,0.12,approach,normal,approach guidance tracking,检测到侧偏后立即修正，并沿目标接地点下滑,,0.22900888414140216,0.025695051146860968,-0.10401759274640028,-0.007950579214070738,0.12,120.0,2001.061766110368
0.6666666666666671,0.016666666666666666,80.96014545252743,2119.0398545474727,-0.005864854611680826,valley,3.2706509777298168e-09,117.37784609616563,117.37784609943628,71.88773784170527,-212.7073791187003,2.23696448140816,1.2549438858707402,359.9781911949967,False,0.0,0.22900888414140216,0.025695051146860968,-0.10401759274640028,-0.007950579214070738,0.12,approach,normal,approach guidance tracking,检测到侧偏后立即修正，并沿目标接地点下滑,,0.22907687670774973,0.02568177543525662,-0.10696928765499904,-0.008167468099690206,0.12,120.0,1999.0398545474727
0.6833333333333338,0.016666666666666666,82.98187428192436,2117.0181257180757,-0.006634396262389361,valley,6.54130195545958e-09,117.31897172050209,117.31897172704339,71.88116109641759,-211.1838169020697,2.2966825551844376,1.2600102815995093,359.9770510140058,False,0.0,0.22907687670774973,0.02568177543525662,-0.10696928765499904,-0.008167468099690206,0.12,approach,normal,approach guidance tracking,检测到侧偏后立即修正，并沿目标接地点下滑,,0.2291473232615344,0.025668059368846138,-0.10981235906881343,-0.008376524523525187,0.12,120.0,1997.0181257180757
0.7000000000000005,0.016666666666666666,85.00341422697508,2114.996585773025,-0.007444094481691695,valley,3.2706509777297618e-09,117.26052395672366,117.26052395999432,71.87437253625868,-209.63583466616427,2.3540634581228312,1.2653546433646083,359.9759804362373,False,0.0,0.2291473232615344,0.025668059368846138,-0.10981235906881343,-0.008376524523525187,0.12,approach,normal,approach guidance tracking,检测到侧偏后立即修正，并沿目标接地点下滑,,0.22922023658545607,0.025653899258017854,-0.11254425627456446,-0.008577703589944679,0.12,120.0,1994.996585773025
0.7166666666666672,0.016666666666666666,87.02475909907592,2112.9752409009243,-0.008291483609342924,valley,6.5413019554594755e-09,117.20250960530372,117.20250961184502,71.86737104876444,-208.06314348115288,2.4090596843493075,1.2709797775013312,359.974990949643,False,0.0,0.22922023658545607,0.025653899258017854,-0.11254425627456446,-0.008577703589944679,0.12,approach,normal,approach guidance tracking,检测到侧偏后立即修正，并沿目标接地点下滑,,0.22929562886337834,0.025639290737931947,-0.11516290933727248,-0.00877099956156261,0.12,120.0,1992.9752409009243
0.733333333333334,0.016666666666666666,89.04590267349954,2110.9540973265002,-0.009173693088924895,valley,-6.541301955459433e-09,117.14493558837442,117.14493558183312,71.86015556976041,-206.4654371589701,2.461633291107387,1.2768879709470744,359.97409406491846,False,0.0,0.22929562886337834,0.025639290737931947,-0.11516290933727248,-0.00877099956156261,0.12,approach,normal,approach guidance tracking,检测到侧偏后立即修正，并沿目标接地点下滑,,0.2293735116781314,0.02562422896812119,-0.11766670968811875,-0.008956443786896058,0.12,120.0,1990.9540973265002
0.7500000000000007,0.016666666666666666,91.06683869098423,2108.9331613090158,-0.010087446875573643,valley,0.0,117.08780886977911,117.08780886977911,71.85283314150725,-204.94055060055177,2.51175550106424,1.2830810075783199,359.9733012779516,False,0.0,0.2293735116781314,0.02562422896812119,-0.11766670968811875,-0.008956443786896058,0.12,approach,normal,approach guidance tracking,检测到侧偏后立即修正，并沿目标接地点下滑,,0.22945259932814158,0.025611831294976305,-0.12005449038908401,-0.009134102626442202,0.12,120.0,1988.9331613090158
0.7666666666666674,0.016666666666666666,93.08756389824656,2106.9124361017534,-0.011029065597772184,valley,-3.2706509777296567e-09,117.03108429863289,117.03108429536223,71.84539597383669,-203.47077345304615,2.5593929220444043,1.2895748210002886,359.97262527651793,False,0.0,0.22945259932814158,0.025611831294976305,-0.12005449038908401,-0.009134102626442202,0.12,approach,normal,approach guidance tracking,检测到侧偏后立即修正，并沿目标接地点下滑,,0.2295329934532769,0.025601499773942084,-0.12232488552149196,-0.009304043185939928,0.12,120.0,1986.9124361017534
0.7833333333333341,0.016666666666666666,95.10807480711117,2104.8919251928887,-0.011994423356901946,valley,-3.270650977729632e-09,116.97476240202025,116.97476239874959,71.83783492474551,-202.0436341918507,2.6045191596678157,1.296375382197794,359.9720785477226,False,0.0,0.2295329934532769,0.025601499773942084,-0.12232488552149196,-0.009304043185939928,0.12,approach,normal,approach guidance tracking,检测到侧偏后立即修正，并沿目标接地点下滑,,0.2296148036956062,0.02559283716621692,-0.12447686373658885,-0.009466356599220058,0.12,120.0,1984.8919251928887
0.8000000000000008,0.016666666666666666,97.128367664038,2102.871632335962,-0.01297895500718576,valley,0.0,116.91883244365454,116.91883244365454,71.83014977302527,-200.655331287606,2.6471175923715022,1.303483238464029,359.97167333336563,False,0.0,0.2296148036956062,0.02559283716621692,-0.12447686373658885,-0.009466356599220058,0.12,approach,normal,approach guidance tracking,检测到侧偏后立即修正，并沿目标接地点下滑,,0.22969803467757097,0.025585714013873974,-0.1265098606503557,-0.009621167896488963,0.12,120.0,1982.8716323359622
0.8166666666666675,0.016666666666666666,99.14843870508952,2100.8515612949104,-0.0139776651584888,valley,-3.270650977729571e-09,116.86328318669632,116.86328318342566,71.8223403728383,-199.30193704340053,2.687180739025621,1.310896350627011,359.9714216902608,False,0.0,0.22969803467757097,0.025585714013873974,-0.1265098606503557,-0.009621167896488963,0.12,approach,normal,approach guidance tracking,检测到侧偏后立即修正，并沿目标接地点下滑,,0.2297826902073611,0.02557999643652037,-0.12842374948817564,-0.00976863449705083,0.12,120.0,1980.8515612949104
0.8333333333333343,0.016666666666666666,101.16828415995793,2098.831715840042,-0.014985134943028212,valley,0.0,116.80810546129942,116.80810546129942,71.81440657459848,-197.97974929406237,2.7247097545927903,1.3186103135674028,359.97133545478175,False,0.0,0.2297826902073611,0.02557999643652037,-0.12842374948817564,-0.00976863449705083,0.12,approach,normal,approach guidance tracking,检测到侧偏后立即修正，并沿目标接地点下滑,,0.22986877376614917,0.025575559248614745,-0.13021881623135606,-0.00990894375423585,0.12,120.0,1978.8317158400419
0.850000000000001,0.016666666666666666,103.18790025364788,2096.812099746352,-0.015995530035269042,valley,-3.2706509777295082e-09,116.75329111098483,116.75329110771418,71.80634823874725,-196.68528257637863,2.7597139230172045,1.3266186202112533,359.9714262132741,False,0.0,0.22986877376614917,0.025575559248614745,-0.13021881623135606,-0.00990894375423585,0.12,approach,normal,approach guidance tracking,检测到侧偏后立即修正，并沿目标接地点下滑,,0.22995628853241512,0.025572284916959613,-0.13189573472603344,-0.010042310576542032,0.12,120.0,1976.812099746352
0.8666666666666677,0.016666666666666666,105.20728320839217,2094.7927167916077,-0.01700260971836761,valley,0.0,116.69883288815618,116.69883288815618,71.79816524402472,-195.41526973669136,2.7922101537061033,1.3349129100120463,359.9717052758687,False,0.0,0.22995628853241512,0.025572284916959613,-0.13189573472603344,-0.010042310576542032,0.12,approach,normal,approach guidance tracking,检测到侧偏后立即修正，并沿目标接地点下滑,,0.23004523730148227,0.02557006353644825,-0.13345554201825618,-0.010168975112395543,0.12,120.0,1974.7927167916077
0.8833333333333344,0.016666666666666666,107.226429245657,2092.773570754343,-0.01799973687622408,valley,-3.270650977729445e-09,116.64472443564966,116.64472443237901,71.78985749504973,-194.16666162437767,2.822222482999765,1.343483204218437,359.9721836535208,False,0.0,0.23004523730148227,0.02557006353644825,-0.13345554201825618,-0.010168975112395543,0.12,approach,normal,approach guidance tracking,检测到侧偏后立即修正，并沿目标接地点下滑,,0.23013562239785823,0.025568792806574567,-0.13489961397982228,-0.0102892005013349,0.12,120.0,1972.773570754343
0.9000000000000011,0.016666666666666666,109.24533458822546,2090.7546654117746,-0.018979888796466216,valley,-3.2706509777294106e-09,116.5909601892455,116.59096018597484,71.78142492914114,-192.93662546941846,2.8497815820621684,1.352318127729994,359.9728720380066,False,0.0,0.23013562239785823,0.025568792806574567,-0.13489961397982228,-0.0102892005013349,0.12,approach,normal,approach guidance tracking,检测到侧偏后立即修正，并沿目标接地点下滑,,0.2302274456109085,0.025568377909010023,-0.13622964128951484,-0.010403270693138551,0.12,120.0,1970.7546654117746
0.9166666666666679,0.016666666666666666,111.26399546234597,2088.736004537654,-0.01993566867920908,valley,0.0,116.53753537684679,116.53753537684679,71.77286752237629,-191.72254207558908,2.874924272489872,1.3614051175262827,359.97378078461526,False,0.0,0.2302274456109085,0.025568377909010023,-0.13622964128951484,-0.010403270693138551,0.12,approach,normal,approach guidance tracking,检测到侧偏后立即修正，并沿目标接地点下滑,,0.23032070812228156,0.025568731416969626,-0.13744760582800533,-0.010511488336011171,0.12,120.0,1968.736004537654
0.9333333333333346,0.016666666666666666,113.2824080999315,2086.7175919000683,-0.020859317755683088,valley,3.2706509777293374e-09,116.48444588155314,116.4844458848238,71.76418529503887,-190.5220019683915,2.8976930508140577,1.3707306177386132,359.9749198972882,False,0.0,0.23032070812228156,0.025568731416969626,-0.13744760582800533,-0.010511488336011171,0.12,approach,normal,approach guidance tracking,检测到侧偏后立即修正，并沿目标接地点下滑,,0.23041541046516115,0.02556977307319899,-0.13855575753898763,-0.010614172734660777,0.12,120.0,1966.7175919000683
0.9500000000000013,0.016666666666666666,115.30056874079888,2084.699431259201,-0.021742727929619367,valley,0.0,116.43168828263879,116.43168828263879,71.75537831620515,-189.3328006277196,2.9181356229534927,1.380280261510425,359.9762990159689,False,0.0,0.23041541046516115,0.02556977307319899,-0.13855575753898763,-0.010614172734660777,0.12,approach,normal,approach guidance tracking,检测到侧偏后立即修正，并沿目标接地点下滑,,0.23051155246183397,0.025571429666875423,-0.13955659180364793,-0.01071165787882702,0.12,120.0,1964.699431259201
0.966666666666668,0.016666666666666666,117.31847363493019,2082.6815263650697,-0.022577454862642718,valley,-6.541301955458544e-09,116.37925970090895,116.37925969436765,71.74644670790839,-188.15293292751096,2.9363044495646933,1.3900390398587823,359.9779274059421,False,0.0,0.23051155246183397,0.025571429666875423,-0.13955659180364793,-0.01071165787882702,0.12,approach,normal,approach guidance tracking,检测到侧偏后立即修正，并沿目标接地点下滑,,0.23060913320153145,0.025573634744323708,-0.1404528273704445,-0.010804290542615074,0.12,120.0,1962.6815263650697
0.9833333333333347,0.016666666666666666,119.33611904474988,2080.66388095525,-0.023354731432759977,valley,-3.27065097772924e-09,116.32715778007343,116.32715777680278,71.73739064848802,-186.98058689589988,2.9522563031296647,1.3999914578074948,359.97981394895623,False,0.0,0.23060913320153145,0.025573634744323708,-0.1404528273704445,-0.010804290542615074,0.12,approach,normal,approach guidance tracking,检测到侧偏后立即修正，并沿目标接地点下滑,,0.23070815100357067,0.025576328396028258,-0.1412473848773104,-0.010892428454803484,0.12,120.0,1960.66388095525
1.0000000000000013,0.016666666666666666,121.35350124739988,2078.6464987526,-0.024065481502330555,valley,-3.2706509777291984e-09,116.27538068547085,116.2753806822002,71.72821037547244,-185.81413690218196,2.96605183752113,1.4101216781115893,359.9819671359404,False,0.0,0.23070815100357067,0.025576328396028258,-0.1412473848773104,-0.010892428454803484,0.12,approach,normal,approach guidance tracking,检测到侧偏后立即修正，并沿目标接地点下滑,,0.2308086033829689,0.025579457037845976,-0.14194336599885332,-0.010976438540184087,0.12,120.0,1958.6464987526
1.016666666666668,0.016666666666666666,123.37061653700422,2076.629383462996,-0.02470033393855812,valley,-9.811952933187512e-09,116.22392697495921,116.22392696514726,71.71890618786914,-184.65213636883797,2.977755170690045,1.420413652935584,359.9843950611432,False,0.0,0.2308086033829689,0.025579457037845976,-0.14194336599885332,-0.010976438540184087,0.12,approach,normal,approach guidance tracking,检测到侧偏后立即修正，并沿目标接地点下滑,,0.23091048704618122,0.025582973085054406,-0.14254403324677115,-0.01105669523183124,0.12,120.0,1956.629383462996
1.0333333333333345,0.016666666666666666,125.38746122691113,2074.612538773089,-0.02524963683570122,valley,-3.2706509777291257e-09,116.17279558583334,116.17279558256269,71.70947844793332,-183.49331009955327,2.987433481030271,1.4308512438824885,359.987105417539,False,0.0,0.23091048704618122,0.025582973085054406,-0.14254403324677115,-0.01105669523183124,0.12,approach,normal,approach guidance tracking,检测到侧偏后立即修正，并沿目标接地点下滑,,0.23101379787220944,0.02558683469771303,-0.14305279044771554,-0.011133578854164307,0.12,120.0,1954.612538773089
1.0500000000000012,0.016666666666666666,127.40403165190196,2072.595968348098,-0.025703471893622397,valley,-3.270650977729087e-09,116.12198580383495,116.12198580056429,71.6999275824822,-182.33654630725036,2.995156617890417,1.4414183308005486,359.99010549336117,False,0.0,0.23101379787220944,0.02558683469771303,-0.14305279044771554,-0.011133578854164307,0.12,approach,normal,approach guidance tracking,检测到侧偏后立即修正，并沿目标接地点下滑,,0.23111853090238907,0.025591005503583432,-0.14347316391893167,-0.01120747407650752,0.12,120.0,1952.5959683480978
1.0666666666666678,0.016666666666666666,129.42032417035844,2070.5796758296415,-0.026051668912322076,valley,-3.2706509777290413e-09,116.07149718656376,116.0714971832931,71.69025408370025,-181.18088841897918,3.0009967266228843,1.452098909817249,359.9934021696403,False,0.0,0.23111853090238907,0.025591005503583432,-0.14347316391893167,-0.01120747407650752,0.12,approach,normal,approach guidance tracking,检测到侧偏后立即修正，并沿目标接地点下滑,,0.23122468034449137,0.025595454281139046,-0.14380878435850403,-0.011278768436859427,0.12,120.0,1950.5796758296415
1.0833333333333344,0.016666666666666666,131.43633516637752,2068.5636648336226,-0.026283820366384256,valley,-6.541301955458014e-09,116.02132954357533,116.02132953703403,71.68045850958093,-180.02552672833622,3.0050278884849164,1.4628771810695684,359.9970019186385,False,0.0,0.23122468034449137,0.025595454281139046,-0.14380878435850403,-0.011278768436859427,0.12,approach,normal,approach guidance tracking,检测到侧偏后立即修正，并沿目标接地点下滑,,0.2313322395709851,0.025600154678547038,-0.14406336946359044,-0.01134785093545363,0.12,120.0,1948.5636648336226
1.100000000000001,0.016666666666666666,133.4520610518276,2066.5479389481725,-0.02638929602716911,valley,0.0,115.97148288041353,115.97148288041353,71.67054148392297,-178.86978995951833,3.007325775635818,1.4737376266123696,0.0009108030856784794,False,0.0,0.2313322395709851,0.025600154678547038,-0.14406336946359044,-0.01134785093545363,0.12,approach,normal,approach guidance tracking,检测到侧偏后立即修正，并沿目标接地点下滑,,0.23144120112913572,0.025605084903906235,-0.14424070728690938,-0.011415110697674116,0.12,120.0,1946.5479389481725
1.1166666666666676,0.016666666666666666,135.4674982683374,2064.5325017316627,-0.026357257603897604,valley,-6.541301955457858e-09,115.92195739133625,115.92195738479495,71.66050369604699,-177.7131368013944,3.0079673214082883,1.4846650789970741,0.0051344761374302935,False,0.0,0.23144120112913572,0.025605084903906235,-0.14424070728690938,-0.011415110697674116,0.12,approach,normal,approach guidance tracking,检测到侧偏后立即修正，并沿目标接地点下滑,,0.23155155674569716,0.025610227449607222,-0.1443446403387539,-0.011480935705809053,0.12,120.0,1944.5325017316627
1.1333333333333342,0.016666666666666666,137.48264328921312,2062.5173567107868,-0.026176673377673106,valley,-6.541301955457768e-09,115.87275338454513,115.87275337800384,71.6503459000593,-176.55514746415557,3.007030405969849,1.4956447810185713,0.00967818198396541,False,0.0,0.23155155674569716,0.025610227449607222,-0.1443446403387539,-0.011480935705809053,0.12,approach,normal,approach guidance tracking,检测到侧偏后立即修正，并沿目标接地点下滑,,0.23166329734918578,0.02561556876886951,-0.14437905043902285,-0.011545711599067235,0.12,120.0,1942.5173567107868
1.1500000000000008,0.016666666666666666,139.49749262127492,2060.502507378725,-0.025836332804965105,valley,-9.811952933186531e-09,115.82387127963408,115.82387126982212,71.6400689139606,-175.39551530596214,3.004593557432491,1.5066624371307171,0.014546757052831968,False,0.0,0.23166329734918578,0.02561556876886951,-0.14437905043902285,-0.011545711599067235,0.12,approach,normal,approach guidance tracking,检测到侧偏后立即修正，并沿目标接地点下滑,,0.23177641308101923,0.025621099006516927,-0.14434784432116868,-0.01160982054123098,0.12,120.0,1940.502507378725
1.1666666666666674,0.016666666666666666,141.5120428066124,2058.4879571933875,-0.025324861069157444,valley,-6.541301955457598e-09,115.77531155107884,115.77531154453754,71.62967361838245,-174.2340385716442,3.0007356684148063,1.5177042570306218,0.01974463175587544,False,0.0,0.23177641308101923,0.025621099006516927,-0.14434784432116868,-0.01160982054123098,0.12,approach,normal,approach guidance tracking,检测到侧偏后立即修正，并沿目标接地点下滑,,0.23189089332083276,0.025626811694525704,-0.1442549399875203,-0.011673640155245238,0.12,120.0,1938.4879571933875
1.183333333333334,0.016666666666666666,143.52629042425204,2056.4737095757478,-0.02463073356053,valley,-9.811952933186266e-09,115.7270747335027,115.72707472369075,71.61916095515804,-173.07061374003925,2.995535728010741,1.528756991908388,0.025275832740123707,False,0.0,0.23189089332083276,0.025626811694525704,-0.1442549399875203,-0.011673640155245238,0.12,approach,normal,approach guidance tracking,检测到侧偏后立即修正，并沿目标接地点下滑,,0.23200672670266748,0.025632703543529735,-0.14410425381317438,-0.01173754252398214,0.12,120.0,1936.4737095757478
1.2000000000000006,0.016666666666666666,145.54023209173565,2054.4597679082644,-0.02374229026650022,valley,-3.2706509777287088e-09,115.67916137307122,115.67916136980057,71.60853192528243,-171.9052271482178,2.989070779327519,1.5398079525184116,0.031143966116995363,False,0.0,0.23200672670266748,0.025632703543529735,-0.14410425381317438,-0.01173754252398214,0.12,approach,normal,approach guidance tracking,检测到侧偏后立即修正，并沿目标接地点下滑,,0.23212390114818066,0.025638774140411855,-0.1438996021489434,-0.011801886162933001,0.12,120.0,1934.4597679082644
1.2166666666666672,0.016666666666666666,147.5538644666076,2052.4461355333924,-0.022647750740206175,valley,-9.811952933186e-09,115.6315720142196,115.63157200440764,71.59778758697765,-170.7379455331608,2.981414043213299,1.5508450224150674,0.03735220570192466,False,0.0,0.23212390114818066,0.025638774140411855,-0.1438996021489434,-0.011801886162933001,0.12,approach,normal,approach guidance tracking,检测到侧偏后立即修正，并沿目标接地点下滑,,0.2322424038922407,0.02564502563665488,-0.14364461098521464,-0.0118670086989992,0.12,120.0,1932.4461355333924
1.2333333333333338,0.016666666666666666,149.5671842478162,2050.4328157521836,-0.021335229470336666,valley,-3.270650977728613e-09,115.5843071448727,115.58430714160204,71.58692905399126,-169.5689087527118,2.972635130415455,1.5618566787292136,0.04390330682079583,False,0.0,0.2322424038922407,0.02564502563665488,-0.14364461098521464,-0.0118670086989992,0.12,approach,normal,approach guidance tracking,检测到侧偏后立即修正，并沿目标接地点下滑,,0.2323622215131903,0.025651462476553435,-0.14334272630034758,-0.01193322786842033,0.12,120.0,1930.4328157521836
1.2500000000000004,0.016666666666666666,151.5801881770272,2048.419811822973,-0.019792750753087354,valley,-9.811952933185722e-09,115.53736724195583,115.53736723214388,71.57595749348079,-168.39832236705126,2.962800241686254,1.5728320069470423,0.050799619304986825,False,0.0,0.2323622215131903,0.025651462476553435,-0.14334272630034758,-0.01193322786842033,0.12,approach,normal,approach guidance tracking,检测到侧偏后立即修正，并沿目标接地点下滑,,0.23248333995002973,0.025658091193213533,-0.14299722381891555,-0.012000842457229481,0.12,120.0,1928.4198118229729
1.266666666666667,0.016666666666666666,153.5928730398423,2046.4071269601577,-0.01800826309474213,valley,-9.811952933185598e-09,115.49075268817647,115.49075267836452,71.56487412379532,-167.22645051513737,2.951972356463351,1.5837607103538403,0.0580430997381096,False,0.0,0.23248333995002973,0.025658091193213533,-0.14299722381891555,-0.012000842457229481,0.12,approach,normal,approach guidance tracking,检测到侧偏后立即修正，并沿目标接地点下滑,,0.2326057445440054,0.02566492012129594,-0.14261121821086062,-0.012070133187537637,0.12,120.0,1926.4071269601577
1.2833333333333337,0.016666666666666666,155.60523566692316,2044.3947643330769,-0.01596965317116488,valley,-1.3082603910913928e-08,115.44446380999622,115.44446379691362,71.55368021213401,-166.05360911074976,2.9402114107922834,1.5946331146192148,0.06563532301748597,False,0.0,0.2326057445440054,0.02566492012129594,-0.14261121821086062,-0.012070133187537637,0.12,approach,normal,approach guidance tracking,检测到侧偏后立即修正，并沿目标接地点下滑,,0.232729420059862,0.025671959207237315,-0.1421876717645502,-0.012141363553101803,0.12,120.0,1924.3947643330769
1.3000000000000003,0.016666666666666666,157.61727293502213,2042.3827270649779,-0.013664759368278887,valley,-1.3082603910913758e-08,115.39850081694064,115.39850080385804,71.54237707219305,-164.8801593706313,2.927574465113465,1.6054401679831216,0.07357749329105408,False,0.0,0.232729420059862,0.025671959207237315,-0.1421876717645502,-0.012141363553101803,0.12,approach,normal,approach guidance tracking,检测到侧偏后立即修正，并沿目标接地点下滑,,0.23285435072499353,0.0256792197590371,-0.141729402564548,-0.012214780607428699,0.12,120.0,1922.3827270649779
1.3166666666666669,0.016666666666666666,159.62898176792234,2040.3710182320776,-0.011081384925483214,valley,-9.811952933185156e-09,115.35286382076843,115.35286381095648,71.5309660616586,-163.7065016839764,2.914115862495061,1.6161734374833825,0.08187045432776734,False,0.0,0.23285435072499353,0.0256792197590371,-0.141729402564548,-0.012214780607428699,0.12,approach,normal,approach guidance tracking,检测到侧偏后立即修正，并沿目标接地点下滑,,0.2329805202560685,0.025686714264466434,-0.14123909220290443,-0.012290615707472259,0.12,120.0,1920.3710182320776
1.3333333333333335,0.016666666666666666,161.64035913728748,2038.3596408627125,-0.008207310701928337,valley,-3.2706509777283336e-09,115.30755281402901,115.30755281075835,71.51944857971505,-162.5330698291978,2.8998873778551486,1.6268251016468704,0.09051469937667396,False,0.0,0.2329805202560685,0.025686714264466434,-0.14123909220290443,-0.012290615707472259,0.12,approach,normal,approach guidance tracking,检测到侧偏后立即修正，并沿目标接地点下滑,,0.23310791189278313,0.025694456191121814,-0.14071929305090683,-0.012369085215797744,0.12,120.0,1918.3596408627125
1.35,0.016666666666666666,163.65140206342463,2036.3485979365753,-0.005030307583639392,valley,-3.270650977728284e-09,115.26256769477561,115.26256769150496,71.5078260644666,-161.36032554091847,2.8849383586814765,1.6373879400464515,0.09951038056685076,False,0.0,0.23310791189278313,0.025694456191121814,-0.14071929305090683,-0.012369085215797744,0.12,approach,normal,approach guidance tracking,检测到侧偏后立即修正，并沿目标接地点下滑,,0.23323650842434582,0.025702459830908294,-0.1401724351165046,-0.012450391163908732,0.12,120.0,1916.3485979365753
1.3666666666666667,0.016666666666666666,165.66210761596136,2034.3378923840387,-0.0015381485476565681,valley,-1.3082603910912962e-08,115.21790818688211,115.21790817379951,71.496099990442,-160.18875342749234,2.869315857724804,1.6478553201053876,0.1088573178972096,False,0.0,0.23323650842434582,0.025702459830908294,-0.1401724351165046,-0.012450391163908732,0.12,approach,normal,approach guidance tracking,检测到侧偏后立即修正，并沿目标接地点下滑,,0.23336629223375766,0.025710740080537024,-0.13960083251102562,-0.012534721879264741,0.12,120.0,1914.3378923840387
1.3833333333333333,0.016666666666666666,167.67247291444298,2032.327527085557,0.0022813796023556797,valley,-1.6353254888640952e-08,115.17357390146626,115.173573885113,71.48427186596474,-159.01885623683148,2.853064758111794,1.6582211815102956,0.11855500786201435,False,0.0,0.23336629223375766,0.025710740080537024,-0.13960083251102562,-0.012534721879264741,0.12,approach,normal,approach guidance tracking,检测到侧偏后立即修正，并沿目标接地点下滑,,0.23349724531830826,0.025719312334766035,-0.13900668954731302,-0.012622252578357388,0.12,120.0,1912.327527085557
1.4,0.016666666666666666,169.68249512884893,2030.317504871151,0.0064404648161675,valley,-1.3082603910912544e-08,115.12956428718505,115.12956427410245,71.47234323066051,-157.85115046651876,2.8362278912959034,1.668480018572687,0.1286026317547275,False,0.0,0.23349724531830826,0.025719312334766035,-0.13900668954731302,-0.012622252578357388,0.12,approach,normal,approach guidance tracking,检测到侧偏后立即修正，并沿目标接地点下滑,,0.23362934932842766,0.025728192310601614,-0.13839210649004266,-0.012713145928061513,0.12,120.0,1910.317504871151
1.4166666666666665,0.016666666666666666,171.69217148003546,2028.3078285199645,0.010951258681344861,valley,-1.635325488864045e-08,115.0858786716677,115.08587865531445,71.4603156529115,-156.68616231175523,2.818846148239079,1.6786268608579065,0.13899906368961357,False,0.0,0.23362934932842766,0.025728192310601614,-0.13839210649004266,-0.012713145928061513,0.12,approach,normal,approach guidance tracking,检测到侧偏后立即修正，并沿目标接地点下滑,,0.2337625855907731,0.025737395947919028,-0.13775908497770278,-0.012807552577334048,0.12,120.0,1908.3078285199645
1.4333333333333331,0.016666666666666666,173.7014992401058,2026.2985007598943,0.01582586560191062,valley,-1.9623905866368222e-08,115.04251623253433,115.04251621291041,71.44819072733223,-155.52442394365622,2.800958584193531,1.6886572523798549,0.14974287837739228,False,0.0,0.2337625855907731,0.025737395947919028,-0.13775908497770278,-0.012807552577334048,0.12,approach,normal,approach guidance tracking,检测到侧偏后立即修正，并沿目标接地点下滑,,0.23389693514373208,0.025746939269934127,-0.13710953313454,-0.012905611661198212,0.12,120.0,1906.2985007598943
1.4499999999999997,0.016666666666666666,175.71047573271088,2024.2895242672892,0.021076332262567506,valley,-1.635325488863992e-08,114.99947597976697,114.99947596341372,71.4359700723791,-154.3664701085635,2.7826025174309477,1.6985672296382335,0.16083235868815823,False,0.0,0.23389693514373208,0.025746939269934127,-0.13710953313454,-0.012905611661198212,0.12,approach,normal,approach guidance tracking,检测到侧偏后立即修正，并沿目标接地点下滑,,0.23403237876927804,0.02575683826208132,-0.1364452703896772,-0.013007451278822543,0.12,120.0,1904.2895242672892
1.4666666666666663,0.016666666666666666,177.71909833328695,2022.2809016667131,0.02671463737090677,valley,-1.3082603910911697e-08,114.9567567874187,114.9567567743361,71.42365532791337,-153.21283503789851,2.7638136222463547,1.7083532987553411,0.17226550303181684,False,0.0,0.23403237876927804,0.02575683826208132,-0.1364452703896772,-0.013007451278822543,0.12,approach,normal,approach guidance tracking,检测到侧偏后立即修正，并沿目标接地点下滑,,0.23416889701650512,0.025767108796344654,-0.13576803201959517,-0.013113188947384306,0.12,120.0,1902.2809016667131
1.483333333333333,0.016666666666666666,179.72736446923076,2020.2726355307693,0.032752681671063585,valley,-1.962390586636725e-08,114.91435739870278,114.91435737907887,71.41124815284667,-152.0640496572996,2.7446260165450527,1.7180124119490363,0.1840400325834306,False,0.0,0.23416889701650512,0.025767108796344654,-0.13576803201959517,-0.013113188947384306,0.12,approach,normal,approach guidance tracking,检测到侧偏后立即修正，并沿目标接地点下滑,,0.23430647022896342,0.025777766545971418,-0.13507947342922533,-0.013222932033293722,0.12,120.0,1900.2726355307693
1.4999999999999996,0.016666666666666666,181.7352716200169,2018.2647283799831,0.03920227822323697,valley,-2.289455684409476e-08,114.87227638120096,114.87227635830641,71.39875022286942,-150.92063908269307,2.725072344303723,1.7275419435586903,0.19615339837812446,False,0.0,0.23430647022896342,0.025777766545971418,-0.13507947342922533,-0.013222932033293722,0.12,approach,normal,approach guidance tracking,检测到侧偏后立即修正，并沿目标接地点下滑,,0.2344450785799804,0.02578882687342634,-0.13438117418602422,-0.01333677816224925,0.12,120.0,1898.2647283799831
1.5166666666666662,0.016666666666666666,183.742817317261,2016.257182682739,0.04607514294434536,valley,-1.635325488863883e-08,114.83051215629948,114.83051213994622,71.38616322825465,-149.7831203903779,2.7051838531806673,1.736939665822349,0.20860278829759824,False,0.0,0.2344450785799804,0.02578882687342634,-0.13438117418602422,-0.01333677816224925,0.12,approach,normal,approach guidance tracking,检测到侧偏后立即修正，并沿目标接地点下滑,,0.2345847020937157,0.025800304780534015,-0.1336746418205874,-0.013454815609494854,0.12,120.0,1896.257182682739
1.5333333333333328,0.016666666666666666,185.74999914473278,2014.2500008552672,0.053382885405850025,valley,-2.6165207821821742e-08,114.78906305888172,114.78906303271651,71.3734888716802,-148.65200064776195,2.6849904675352065,1.746203724584568,0.22138513396783557,False,0.0,0.2345847020937157,0.025800304780534015,-0.1336746418205874,-0.013454815609494854,0.12,approach,normal,approach guidance tracking,检测到侧偏后立即修正，并沿目标接地点下滑,,0.23472532066054919,0.02581221488873371,-0.1329613154066022,-0.013577123671557167,0.12,120.0,1894.2500008552672
1.5499999999999994,0.016666666666666666,187.7568147383208,2012.2431852616792,0.0611369998854479,valley,-2.2894556844093596e-08,114.7479271894161,114.74792716652155,71.36072886621498,-147.5277751909903,2.6645208571022994,1.7553326150968587,0.2344971175852824,False,0.0,0.23472532066054919,0.02581221488873371,-0.1329613154066022,-0.013577123671557167,0.12,approach,normal,approach guidance tracking,检测到侧偏后立即修正，并沿目标接地点下滑,,0.23486691408787125,0.025824571277722426,-0.1322425689322342,-0.013703773020653422,0.12,120.0,1892.2431852616792
1.566666666666666,0.016666666666666666,189.76326178595448,2010.2367382140455,0.06934885666994327,valley,-2.6165207821820803e-08,114.70710259684797,114.70710257068276,71.34788493324864,-146.4109261353395,2.643802501555506,1.7643251580555903,0.2479351786865767,False,0.0,0.23486691408787125,0.025824571277722426,-0.1322425689322342,-0.013703773020653422,0.12,approach,normal,approach guidance tracking,检测到侧偏后立即修正，并沿目标接地点下滑,,0.23500946209200688,0.025837387569727664,-0.13151971447438407,-0.013834826042879517,0.12,120.0,1890.2367382140455
1.5833333333333326,0.016666666666666666,191.76933802748306,2008.2306619725168,0.07802969360710242,valley,-2.616520782182031e-08,114.66658715540048,114.66658712923527,71.3349588006568,-145.30192110450676,2.622861751179312,1.7731804760060816,0.26169552087491094,False,0.0,0.23500946209200688,0.025837387569727664,-0.13151971447438407,-0.013834826042879517,0.12,approach,normal,approach guidance tracking,检测到侧偏后立即修正，并沿目标接地点下滑,,0.235152944342409,0.02585067680035271,-0.13079400518663953,-0.013970337161212154,0.12,120.0,1888.2306619725168
1.5999999999999992,0.016666666666666666,193.77504125451864,2006.2249587454814,0.08719060790477366,valley,-2.6165207821819866e-08,114.62637863317009,114.62637860700488,71.3219522009371,-144.20121216444102,2.6017238838605508,1.7818979702261317,0.27577411851421324,False,0.0,0.235152944342409,0.02585067680035271,-0.13079400518663953,-0.013970337161212154,0.12,approach,normal,approach guidance tracking,检测到侧偏后立即修正，并沿目标接地点下滑,,0.23529734047168155,0.02586445143405931,-0.13006663811117494,-0.014110353144288065,0.12,120.0,1886.2249587454814
1.6166666666666658,0.016666666666666666,195.78036931024334,2004.2196306897567,0.09684254817590773,valley,-3.2706509777274274e-08,114.5864746599629,114.5864746272564,71.3088679014344,-143.10923168849664,2.580413158598065,1.790477298187808,0.29016672340059246,False,0.0,0.23529734047168155,0.02586445143405931,-0.13006663811117494,-0.014110353144288065,0.12,approach,normal,approach guidance tracking,检测到侧偏后立即修正，并沿目标接地点下滑,,0.23544261771866712,0.02587872303370528,-0.12933875682431373,-0.01425491340185744,0.12,120.0,1884.2196306897567
1.6333333333333324,0.016666666666666666,197.78532011819965,2002.2146798818003,0.10699630687539317,valley,-2.6165207821818943e-08,114.54687274628755,114.54687272012234,71.29570959442032,-142.02639076555593,2.5589528662669037,1.7989183936322515,0.3048688839290187,False,0.0,0.23544261771866712,0.02587872303370528,-0.12933875682431373,-0.01425491340185744,0.12,approach,normal,approach guidance tracking,检测到侧偏后立即修正，并沿目标接地点下滑,,0.23558873224380264,0.025893502243202995,-0.1286114541681067,-0.014404050457624907,0.12,120.0,1882.2146798818003
1.649999999999999,0.016666666666666666,199.78989170796044,2000.2101082920396,0.11766251343945447,valley,-3.597716075500045e-08,114.50757032132725,114.50757028535008,71.28247826437224,-140.95307291326338,2.5373653774507856,1.8072214959227446,0.31987596695819237,False,0.0,0.23558873224380264,0.025893502243202995,-0.1286114541681067,-0.014404050457624907,0.12,approach,normal,approach guidance tracking,检测到侧偏后立即修正，并沿目标接地点下滑,,0.2357356727146944,0.025908799231539506,-0.12788577489118466,-0.014557790452125326,0.12,120.0,1880.2101082920396
1.6666666666666656,0.016666666666666666,201.79408213862112,1998.2059178613788,0.12885162766565125,valley,-3.2706509777272527e-08,114.46856465108539,114.46856461837888,71.26917565815708,-139.88966191831895,2.5156953574097747,1.8153871798370258,0.3351833870818927,False,0.0,0.2357356727146944,0.025908799231539506,-0.12788577489118466,-0.014557790452125326,0.12,approach,normal,approach guidance tracking,检测到侧偏后立即修正，并沿目标接地点下滑,,0.23588341867936824,0.025924623933022993,-0.12716383389723943,-0.014716244792051185,0.12,120.0,1878.2059178613788
1.6833333333333322,0.016666666666666666,203.79788951982076,1996.2021104801793,0.14057394159262393,valley,-3.270650977727188e-08,114.4298529616728,114.42985292896628,71.25580351243238,-138.8365201656025,2.4939856702951975,1.8234161720446185,0.3507863129540236,False,0.0,0.23588341867936824,0.025924623933022993,-0.12716383389723943,-0.014716244792051185,0.12,approach,normal,approach guidance tracking,检测到侧偏后立即修正，并沿目标接地点下滑,,0.2360319498150662,0.02594098557333635,-0.1264476545816596,-0.014879514183024727,0.12,120.0,1876.2021104801793
1.6999999999999988,0.016666666666666666,205.8013120112372,1994.1986879887627,0.15283957100957474,valley,-3.2706509777271216e-08,114.39143234409238,114.39143231138587,71.24236355670519,-137.79399210026023,2.4722769767469,1.8313093327792247,0.3666796720331858,False,0.0,0.2360319498150662,0.02594098557333635,-0.1264476545816596,-0.014879514183024727,0.12,approach,normal,approach guidance tracking,检测到侧偏后立即修正，并沿目标接地点下滑,,0.23618124590868364,0.025957892711124635,-0.12573914955743062,-0.015047687163145583,0.12,120.0,1874.1986879887627
1.7166666666666655,0.016666666666666666,207.80434782218572,1992.1956521778143,0.16565844714402084,valley,-3.9247811732724783e-08,114.35329980975204,114.35329977050424,71.22885751158599,-136.7624043073591,2.4506077840727225,1.8390676389777563,0.38285816102025294,False,0.0,0.23618124590868364,0.025957892711124635,-0.12573914955743062,-0.015047687163145583,0.12,approach,normal,approach guidance tracking,检测到侧偏后立即修正，并沿目标接地点下滑,,0.2363312868677336,0.025975353280694606,-0.12504012320421196,-0.015220840441924158,0.12,120.0,1872.1956521778143
1.733333333333332,0.016666666666666666,209.8069952111851,1990.193004788815,0.17904030872588916,valley,-4.578911368817814e-08,114.31545226384483,114.31545221805573,71.21528708761294,-135.74206550692563,2.4290144962855544,1.84669216826287,0.39931625629685846,False,0.0,0.2363312868677336,0.025975353280694606,-0.12504012320421196,-0.015220840441924158,0.12,approach,normal,approach guidance tracking,检测到侧偏后立即修正，并沿目标接地点下滑,,0.2364820527392515,0.025993374572774723,-0.1243522742124006,-0.015399039239063871,0.12,120.0,1870.193004788815
1.7499999999999987,0.016666666666666666,211.8092524855069,1988.190747514493,0.19299469442762396,valley,-3.9247811732723294e-08,114.27788654541784,114.27788650617003,71.2016539839344,-134.73326284174195,2.4075314646200843,1.8541840838362402,0.41604822436145455,False,0.0,0.2364820527392515,0.025993374572774723,-0.1243522742124006,-0.015399039239063871,0.12,approach,normal,approach guidance tracking,检测到侧偏后立即修正，并沿目标接地点下滑,,0.2366335237183966,0.026011963144685703,-0.12367719815198258,-0.015582337625405762,0.12,120.0,1868.190747514493
1.7666666666666653,0.016666666666666666,213.81111800070357,1986.1888819992964,0.20753093567973224,valley,-4.5789113688176345e-08,114.24059941728197,114.24059937149286,71.1879598885112,-133.73626354538933,2.386196790383136,1.8615446567985345,0.4330481943325081,False,0.0,0.2366335237183966,0.026011963144685703,-0.12367719815198258,-0.015582337625405762,0.12,approach,normal,approach guidance tracking,检测到侧偏后立即修正，并沿目标接地点下滑,,0.23678568014784604,0.026031124866559015,-0.12301666722771899,-0.01577080165412327,0.12,120.0,1866.1888819992964
1.7833333333333319,0.016666666666666666,215.8125901601158,1984.1874098398841,0.2226581520293786,valley,-4.578911368817547e-08,114.2035875666567,114.20358752086759,71.17420647741747,-132.75132620172158,2.3650572315468423,1.8687752816291416,0.4503102109262154,False,0.0,0.23678568014784604,0.026031124866559015,-0.12301666722771899,-0.01577080165412327,0.12,approach,normal,approach guidance tracking,检测到侧偏后立即修正，并沿目标接地点下滑,,0.2369385025260725,0.02605086528231839,-0.12237286668879446,-0.01596452879580061,0.12,120.0,1864.1874098398841
1.7999999999999985,0.016666666666666666,217.8136674143416,1982.1863325856584,0.2383852483568871,valley,-5.233041564362811e-08,114.16684760543458,114.16684755310416,71.16039541046763,-131.77869122452958,2.344156341687681,1.8758773849104817,0.46782809853807883,False,0.0,0.2369385025260725,0.02605086528231839,-0.12237286668879446,-0.01596452879580061,0.12,approach,normal,approach guidance tracking,检测到侧偏后立即修正，并沿目标接地点下滑,,0.23709197155977835,0.026071189305320177,-0.12174782313585976,-0.016163600824841258,0.12,120.0,1862.1863325856584
1.816666666666665,0.016666666666666666,219.8143482606852,1980.1856517393148,0.2547209073522056,valley,-5.233041564362705e-08,114.13037607836478,114.13037602603436,71.14652833211902,-130.81858292879974,2.323534546164992,1.8828524157495803,0.48559547496104216,False,0.0,0.23709197155977835,0.026071189305320177,-0.12174782313585976,-0.016163600824841258,0.12,approach,normal,approach guidance tracking,检测到侧偏后立即修正，并沿目标接地点下滑,,0.23724606815159627,0.02609210129028209,-0.121143408378537,-0.01636808430719481,0.12,120.0,1860.1856517393148
1.8333333333333317,0.016666666666666666,221.8146312426429,1978.185368757357,0.27167358248128476,valley,-5.887171759907934e-08,114.09416948185584,114.09416942298412,71.13260687042863,-129.87120984938235,2.303229190813512,1.8897018357203506,0.5036057646876028,False,0.0,0.23724606815159627,0.02609210129028209,-0.121143408378537,-0.01636808430719481,0.12,approach,normal,approach guidance tracking,检测到侧偏后立即修正，并沿目标接地点下滑,,0.23740077340922855,0.026113605057101908,-0.12056134196876052,-0.01657803097788667,0.12,120.0,1858.185368757357
1.8499999999999983,0.016666666666666666,223.81451494937198,1976.185485050628,0.2892514914268405,valley,-6.214236857680477e-08,114.05822425589417,114.05822419375181,71.11863263628817,-128.93676506034043,2.28327459674831,1.8964271096569878,0.5218522121844792,False,0.0,0.23740077340922855,0.026113605057101908,-0.12056134196876052,-0.01657803097788667,0.12,approach,normal,approach guidance tracking,检测到侧偏后立即修正，并沿目标接地点下滑,,0.23755606865608628,0.026135703895297548,-0.12000319402931552,-0.016793478141837605,0.12,120.0,1856.185485050628
